{"version": 0.6, "generator": "Overpass API 0.7.59 e21c39fe", "osm3s": {"timestamp_osm_base": "2023-03-01T09:13:24Z", "copyright": "The data included in this document is from www.openstreetmap.org. The data is made available under ODbL."}, "elements": [{"type": "node", "id": 734639241, "lat": 47.0183655, "lon": 19.4331119, "tags": {"is_in": "Sz\u00e9kt\u00f3d\u0171l\u0151", "name": "N\u00e9praizi M\u00fazeum", "tourism": "museum"}}, {"type": "node", "id": 938876722, "lat": 47.2893437, "lon": 19.2267616, "tags": {"name": "T\u00e1jh\u00e1z", "tourism": "museum"}}, {"type": "node", "id": 956716501, "lat": 47.131897, "lon": 19.4252745, "tags": {"name": "\u00d6rk\u00e9nyi falum\u00fazeum", "tourism": "museum"}}, {"type": "node", "id": 1313884386, "lat": 47.0412418, "lon": 19.7857832, "tags": {"contact:facebook": "https://www.facebook.com/aranyjanosmuzeumnagykoros/?locale=hu_HU", "email": "muzeum@korosikultura.hu", "mobile": "+36 20 950 9560", "name": "Arany J\u00e1nos M\u00fazeum", "tourism": "museum", "website": "https://korosikultura.hu/muzeum-rolunk.html"}}, {"type": "node", "id": 3325964713, "lat": 47.194863, "lon": 19.3793382, "tags": {"name": "T\u00e1jh\u00e1z", "tourism": "museum"}}, {"type": "node", "id": 3432048225, "lat": 47.025697, "lon": 19.562775, "tags": {"name": "Helyt\u00f6rt\u00e9neti gy\u0171jtem\u00e9ny", "source": "turistautak.hu", "tourism": "museum", "url": "http://turistautak.hu/poi.php?id=104242"}}, {"type": "node", "id": 3432048428, "lat": 47.00639, "lon": 19.58469, "tags": {"name": "Tanya m\u00fazeum - z\u00e1rva!", "source": "turistautak.hu", "tourism": "museum", "url": "http://turistautak.hu/poi.php?id=40551"}}, {"type": "node", "id": 3445164782, "lat": 47.2584939, "lon": 19.3264974, "tags": {"addr:city": "In\u00e1rcs", "addr:conscriptionnumber": "330", "addr:postcode": "2365", "addr:street": "D\u00f3zsa Gy\u00f6rgy t\u00e9r", "description": "\u00d6r\u00f6k id\u0151kben elpusztult Szt.Gy\u00f6rgy templom \u00e9s falu eml\u00e9kparkja.", "ele": "112", "name": "T\u00f6rt\u00e9nelmi Eml\u00e9kpark", "source": "turistautak.hu", "tourism": "museum", "url": "http://turistautak.hu/poi.php?id=11342"}}, {"type": "node", "id": 3446927248, "lat": 47.3205166, "lon": 19.7663227, "tags": {"name": "Kincsem Eml\u00e9km\u00fazeum", "source": "turistautak.hu", "source:date": "2011-05-16", "tourism": "museum", "url": "http://turistautak.hu/poi.php?id=55678"}}, {"type": "node", "id": 3446927297, "lat": 47.350933, "lon": 19.632583, "tags": {"contact:phone": "+36 29 430 483", "name": "P\u00e1ndi Kiss J\u00e1nos szoborki\u00e1ll\u00edt\u00e1s", "source": "turistautak.hu", "source:date": "2011-05-16", "tourism": "museum", "url": "http://turistautak.hu/poi.php?id=4035"}}, {"type": "node", "id": 3454581608, "lat": 47.11615, "lon": 19.6856, "tags": {"name": "Jawa Motorker\u00e9kp\u00e1r M\u00fazeum", "source": "turistautak.hu", "source:date": "2011-06-24", "tourism": "museum", "url": "http://turistautak.hu/poi.php?id=29651"}}, {"type": "node", "id": 3459946870, "lat": 47.06677, "lon": 19.49641, "tags": {"name": "T\u00e1jh\u00e1z", "source": "turistautak.hu", "source:date": "2011-06-24", "tourism": "museum", "url": "http://turistautak.hu/poi.php?id=63104"}}, {"type": "node", "id": 3461941888, "lat": 47.024391, "lon": 19.289246, "tags": {"description": "A k\u00f6zpont el\u0151zetes egyeztet\u00e9ssel, csoportosan l\u00e1togathat\u00f3.", "name": "R\u00e1kosivipera-v\u00e9delmi \u00e9s Oktat\u00f3 K\u00f6zpont", "source": "turistautak.hu", "source:date": "2014-09-01", "tourism": "museum", "url": "http://turistautak.hu/poi.php?id=171438"}}, {"type": "node", "id": 3471930615, "lat": 47.1846426, "lon": 19.3083685}, {"type": "node", "id": 3471930791, "lat": 47.212767, "lon": 19.27185, "tags": {"addr:city": "Dabas", "addr:housenumber": "3/D", "addr:postcode": "2371", "addr:street": "M\u00e1nteleki \u00fat", "name": "S\u00e1ri R\u00e9tesh\u00e1z \u00e9s T\u00e1jh\u00e1z", "source": "turistautak.hu", "source:date": "2011-06-24", "tourism": "museum", "url": "http://turistautak.hu/poi.php?id=117381", "website": "http://www.sarireteshaz.hu/"}}, {"type": "node", "id": 3788303202, "lat": 47.2918437, "lon": 19.1840484, "tags": {"alt_name": "MiG vad\u00e1szrep\u00fcl\u0151g\u00e9p m\u00fazeum (\"Roncs-ranch\", bez\u00e1rt)", "demolished:museum": "yes", "description": "Roncs-ranch: 15db MiG-15 (bis \u00e9s UTI), n\u00e9h\u00e1ny MiG-17PF, MiG-19 \u00e9s MiG-21 (F-13, U \u00e9s csehszlov\u00e1k F) \u00e1llt itt, p\u00e1r civil g\u00e9p mellett. 2007-re 3db, 2010-re egy sem maradt. Az egykori tulajdonos egy spanyol rep\u00fcl\u0151m\u00fazeumnak adta el a vad\u00e1szg\u00e9p roncsokat.", "ele": "97", "name": "Roncs-ranch", "operator": "(bez\u00e1rt)", "tourism": "museum", "website": "http://www.wings.hu/muzeum/hungarian_wr/", "wheelchair": "yes"}}, {"type": "node", "id": 4659832989, "lat": 47.1846831, "lon": 19.3083118}, {"type": "node", "id": 4659832990, "lat": 47.1847153, "lon": 19.3083617}, {"type": "node", "id": 4659832991, "lat": 47.1848662, "lon": 19.3081508}, {"type": "node", "id": 4659832992, "lat": 47.1849226, "lon": 19.308238}, {"type": "node", "id": 4659832993, "lat": 47.1847311, "lon": 19.3085057}, {"type": "node", "id": 6440442235, "lat": 47.0667917, "lon": 19.4964041}, {"type": "node", "id": 6440442236, "lat": 47.0667196, "lon": 19.4962942}, {"type": "node", "id": 6440442237, "lat": 47.0667694, "lon": 19.4962236}, {"type": "node", "id": 6440442238, "lat": 47.0668416, "lon": 19.4963336}, {"type": "node", "id": 8423385131, "lat": 47.1847032, "lon": 19.3084624, "tags": {"historic": "memorial", "inscription": "Kossuth Lajos \u00e9desatyja", "material": "granite", "memorial": "plaque", "name": "Kossuth L\u00e1szl\u00f3"}}, {"type": "node", "id": 8890986232, "lat": 47.1166745, "lon": 19.6962628, "tags": {"name": "Orisek Ferenc szoborfarag\u00f3 m\u00fazeum", "tourism": "museum"}}, {"type": "node", "id": 9527833099, "lat": 47.22339, "lon": 19.665935, "tags": {"name": "Helyt\u00f6rt\u00e9neti H\u00e1z / Heimatmuseum", "note": "Bejelentkez\u00e9s: 06 53 378 114", "opening_hours": "Mo 09:00-11:00", "tourism": "museum"}}, {"type": "way", "id": 471832601, "nodes": [3471930615, 8423385131, 4659832993, 4659832992, 4659832991, 4659832990, 4659832989, 3471930615], "tags": {"addr:city": "Dabas", "addr:housenumber": "19", "addr:postcode": "2370", "addr:street": "Kossuth L\u00e1szl\u00f3 utca", "building": "yes", "name": "Kossuth H\u00e1z Gal\u00e9ria", "opening_hours": "Mo,Fr 13:00-17:00; Tu-Th 09:00-17:00", "phone": "+36 29 362 545", "source": "turistautak.hu", "source:date": "2013-06-02", "tourism": "museum", "url": "http://turistautak.hu/poi.php?id=147766", "website": "https://www.kmkdabas.hu/index.php/kossuth-haz-galeria"}}, {"type": "way", "id": 687045046, "nodes": [6440442238, 6440442235, 6440442236, 6440442237, 6440442238], "tags": {"building": "yes", "tourism": "museum"}}]}