{"version": 0.6, "generator": "Overpass API 0.7.59 e21c39fe", "osm3s": {"timestamp_osm_base": "2023-03-01T09:03:08Z", "copyright": "The data included in this document is from www.openstreetmap.org. The data is made available under ODbL."}, "elements": [{"type": "node", "id": 1330861125, "lat": 48.1025722, "lon": 20.781602}, {"type": "node", "id": 1330861184, "lat": 48.1024914, "lon": 20.7816025}, {"type": "node", "id": 1330861222, "lat": 48.1025917, "lon": 20.7812807}, {"type": "node", "id": 1330861230, "lat": 48.1024592, "lon": 20.7814979}, {"type": "node", "id": 1330861276, "lat": 48.1024896, "lon": 20.7812565}, {"type": "node", "id": 3437149585, "lat": 48.1035256, "lon": 20.7535912, "tags": {"addr:city": "Miskolc", "addr:housenumber": "47", "addr:postcode": "3531", "addr:street": "Gy\u0151ri kapu", "name": "L\u00e9zerpont St\u00fadi\u00f3 Kft. (L\u00e1tv\u00e1nyt\u00e1r \u00e9s m\u0171hely)", "name:en": "L\u00e9zerpont St\u00fadi\u00f3 Kft. (museum, workshop, gallery, shop, copy center)", "opening_hours": "Mo-Fr 09:00-16:00", "phone": "+36 46 428 033", "source:date": "2011-07-04", "tourism": "gallery", "url": "http://turistautak.hu/poi.php?id=66743", "website": "https://lezerpont-studio-kft.business.site/"}}, {"type": "node", "id": 9713300038, "lat": 47.8109687, "lon": 20.5738593}, {"type": "node", "id": 9713300039, "lat": 47.8109593, "lon": 20.5739784}, {"type": "node", "id": 9713300040, "lat": 47.8110299, "lon": 20.5740695}, {"type": "node", "id": 9713300042, "lat": 47.8111812, "lon": 20.5737566}, {"type": "node", "id": 9713300043, "lat": 47.8110597, "lon": 20.5736048}, {"type": "node", "id": 9713300044, "lat": 47.8109484, "lon": 20.5736982}, {"type": "node", "id": 9713300045, "lat": 47.8110048, "lon": 20.5737858}, {"type": "way", "id": 118324628, "nodes": [1330861222, 1330861276, 1330861230, 1330861184, 1330861125, 1330861222], "tags": {"building": "yes", "fee": "yes", "name": "Miskolci Gal\u00e9ria", "tourism": "gallery"}}, {"type": "way", "id": 1057097346, "nodes": [9713300042, 9713300043, 9713300044, 9713300045, 9713300038, 9713300039, 9713300040, 9713300042], "tags": {"addr:city": "Mez\u0151k\u00f6vesd", "addr:housenumber": "23", "addr:postcode": "3400", "addr:street": "Szent L\u00e1szl\u00f3 t\u00e9r", "building": "yes", "name": "Tak\u00e1cs Istv\u00e1n Gy\u0171jtem\u00e9ny", "opening_hours": "Tu-Sa 09:00-16:00", "operator": "Tak\u00e1cs Istv\u00e1n Kultur\u00e1lis Alap\u00edtv\u00e1ny", "tourism": "gallery", "website": "http://www.takacsistvangyujtemeny.hu/"}}]}