{"version": 0.6, "generator": "Overpass API 0.7.59 e21c39fe", "osm3s": {"timestamp_osm_base": "2023-03-01T09:14:24Z", "copyright": "The data included in this document is from www.openstreetmap.org. The data is made available under ODbL."}, "elements": [{"type": "node", "id": 1945986245, "lat": 46.4296812, "lon": 19.478975, "tags": {"name": "Thorma J\u00e1nos M\u00fazeum", "tourism": "museum"}}, {"type": "node", "id": 2955662811, "lat": 46.537755, "lon": 19.2398254}, {"type": "node", "id": 2955662812, "lat": 46.5397311, "lon": 19.2434322}, {"type": "node", "id": 2955662814, "lat": 46.5373484, "lon": 19.2423917}, {"type": "node", "id": 2955662815, "lat": 46.5371966, "lon": 19.2419339}, {"type": "node", "id": 2985965586, "lat": 46.2148565, "lon": 19.3783771, "tags": {"name": "V\u00f6r\u00f6s L\u00e1szl\u00f3 Eml\u00e9kszoba", "tourism": "museum"}}, {"type": "node", "id": 2987317567, "lat": 46.2177234, "lon": 19.3666441, "tags": {"name": "Helyt\u00f6rt\u00e9neti ki\u00e1ll\u00edt\u00e1s", "tourism": "museum"}}, {"type": "node", "id": 2987317574, "lat": 46.2176935, "lon": 19.3666302}, {"type": "node", "id": 2987317575, "lat": 46.2177486, "lon": 19.3665868}, {"type": "node", "id": 2987317576, "lat": 46.2177591, "lon": 19.3668044}, {"type": "node", "id": 2987317577, "lat": 46.2178142, "lon": 19.366761}, {"type": "node", "id": 2987390083, "lat": 46.2192405, "lon": 19.366189, "tags": {"name": "F\u00e9nyk\u00e9pez\u0151g\u00e9p-ki\u00e1ll\u00edt\u00e1s", "tourism": "museum"}}, {"type": "node", "id": 2987390093, "lat": 46.2191116, "lon": 19.3661335}, {"type": "node", "id": 2987390094, "lat": 46.219172, "lon": 19.3662708}, {"type": "node", "id": 2987390095, "lat": 46.2191955, "lon": 19.3660564}, {"type": "node", "id": 2987390096, "lat": 46.2192559, "lon": 19.3661937}, {"type": "node", "id": 2995495006, "lat": 46.1631866, "lon": 19.276927}, {"type": "node", "id": 2995495007, "lat": 46.1632091, "lon": 19.277062}, {"type": "node", "id": 2995495008, "lat": 46.16321, "lon": 19.2768733}, {"type": "node", "id": 2995495009, "lat": 46.1632172, "lon": 19.2769163}, {"type": "node", "id": 2995495010, "lat": 46.1632638, "lon": 19.2768546}, {"type": "node", "id": 2995495011, "lat": 46.1632935, "lon": 19.2770326}, {"type": "node", "id": 3048189527, "lat": 46.2091331, "lon": 19.538497}, {"type": "node", "id": 3048189528, "lat": 46.2091724, "lon": 19.5385862}, {"type": "node", "id": 3048189529, "lat": 46.2092584, "lon": 19.5383818}, {"type": "node", "id": 3048189530, "lat": 46.2092977, "lon": 19.538471}, {"type": "node", "id": 3190753383, "lat": 46.522954, "lon": 19.254715, "tags": {"name": "Keceli M\u00fazeum", "tourism": "museum"}}, {"type": "node", "id": 3882062240, "lat": 46.5366989, "lon": 19.2407377}, {"type": "node", "id": 3882062254, "lat": 46.5368503, "lon": 19.2409506}, {"type": "node", "id": 3882062471, "lat": 46.5371006, "lon": 19.2419889}, {"type": "node", "id": 3882062526, "lat": 46.5377898, "lon": 19.2442297}, {"type": "node", "id": 3882062579, "lat": 46.5385071, "lon": 19.2412774}, {"type": "node", "id": 3882062622, "lat": 46.5388406, "lon": 19.2437991, "tags": {"information": "office", "tourism": "information"}}, {"type": "node", "id": 3882062629, "lat": 46.5388762, "lon": 19.2437845, "tags": {"barrier": "gate", "bicycle": "yes", "foot": "yes"}}, {"type": "node", "id": 4311299892, "lat": 46.2542729, "lon": 19.2398299}, {"type": "node", "id": 4311299894, "lat": 46.2543339, "lon": 19.2397769}, {"type": "node", "id": 4311299895, "lat": 46.2543666, "lon": 19.2400552}, {"type": "node", "id": 4311299899, "lat": 46.2544303, "lon": 19.2399998}, {"type": "node", "id": 4850734549, "lat": 46.5383855, "lon": 19.2410651}, {"type": "node", "id": 4850734550, "lat": 46.538416, "lon": 19.2410289}, {"type": "node", "id": 4856264403, "lat": 46.4542538, "lon": 19.7880423}, {"type": "node", "id": 4856264404, "lat": 46.4541902, "lon": 19.7881249}, {"type": "node", "id": 4856264725, "lat": 46.4541043, "lon": 19.7879854}, {"type": "node", "id": 4856264726, "lat": 46.4543166, "lon": 19.7881443}, {"type": "node", "id": 4856264727, "lat": 46.4543691, "lon": 19.7880761}, {"type": "node", "id": 4856264728, "lat": 46.4542203, "lon": 19.7878347}, {"type": "node", "id": 4857487359, "lat": 46.4542573, "lon": 19.7878948, "tags": {"entrance": "yes"}}, {"type": "node", "id": 4872047425, "lat": 46.4342917, "lon": 19.4797879, "tags": {"name": "V\u00e9gh-k\u00faria", "tourism": "museum"}}, {"type": "node", "id": 5310080440, "lat": 46.2009506, "lon": 19.7809887}, {"type": "node", "id": 5310080441, "lat": 46.2008392, "lon": 19.7812569}, {"type": "node", "id": 5310080442, "lat": 46.2009069, "lon": 19.7813156}, {"type": "node", "id": 5310080443, "lat": 46.2010183, "lon": 19.7810474}, {"type": "node", "id": 5545563540, "lat": 46.4352467, "lon": 19.4805267, "tags": {"name": "T\u00e1jh\u00e1z", "tourism": "museum"}}, {"type": "node", "id": 5979555620, "lat": 46.1991577, "lon": 19.7178901}, {"type": "node", "id": 5979555621, "lat": 46.1993133, "lon": 19.7182021}, {"type": "node", "id": 5979555622, "lat": 46.1988897, "lon": 19.71863}, {"type": "node", "id": 5979555623, "lat": 46.1987341, "lon": 19.7183743}, {"type": "node", "id": 5979740500, "lat": 46.1988026, "lon": 19.7185035}, {"type": "node", "id": 6665178626, "lat": 46.4306907, "lon": 19.4890195}, {"type": "node", "id": 6665178627, "lat": 46.430661, "lon": 19.4889132}, {"type": "node", "id": 6665178628, "lat": 46.4305842, "lon": 19.4889589}, {"type": "node", "id": 6665178629, "lat": 46.4305476, "lon": 19.4888247}, {"type": "node", "id": 6665178630, "lat": 46.4306271, "lon": 19.4887789}, {"type": "node", "id": 6665178631, "lat": 46.4305966, "lon": 19.4886672}, {"type": "node", "id": 6665178632, "lat": 46.4305168, "lon": 19.488714}, {"type": "node", "id": 6665178633, "lat": 46.4304775, "lon": 19.4885729}, {"type": "node", "id": 6665178634, "lat": 46.4303934, "lon": 19.4886222}, {"type": "node", "id": 6665178635, "lat": 46.4304571, "lon": 19.4888507}, {"type": "node", "id": 6665178636, "lat": 46.4303446, "lon": 19.4889167}, {"type": "node", "id": 6665178637, "lat": 46.4303907, "lon": 19.4890822}, {"type": "node", "id": 6665178638, "lat": 46.430506, "lon": 19.4890145}, {"type": "node", "id": 6665178639, "lat": 46.4305677, "lon": 19.4892357}, {"type": "node", "id": 6665178640, "lat": 46.4306474, "lon": 19.4891889}, {"type": "node", "id": 6665178641, "lat": 46.4306131, "lon": 19.4890657}, {"type": "node", "id": 7464943464, "lat": 46.4885376, "lon": 19.7305533}, {"type": "node", "id": 7465191097, "lat": 46.4880037, "lon": 19.7305217}, {"type": "node", "id": 7465191098, "lat": 46.4882918, "lon": 19.730976}, {"type": "node", "id": 7465191099, "lat": 46.4882889, "lon": 19.7301511}, {"type": "node", "id": 8032967812, "lat": 46.5633482, "lon": 19.6786745}, {"type": "node", "id": 8032967813, "lat": 46.5631942, "lon": 19.6786305}, {"type": "node", "id": 8032967814, "lat": 46.5631777, "lon": 19.6785972}, {"type": "node", "id": 8032967815, "lat": 46.5631357, "lon": 19.6785566}, {"type": "node", "id": 8032967816, "lat": 46.5630854, "lon": 19.6785606}, {"type": "node", "id": 8032967817, "lat": 46.5630519, "lon": 19.6786054}, {"type": "node", "id": 8032967818, "lat": 46.5630407, "lon": 19.6786826}, {"type": "node", "id": 8032967819, "lat": 46.5630547, "lon": 19.6787517}, {"type": "node", "id": 8032967820, "lat": 46.563091, "lon": 19.6787883}, {"type": "node", "id": 8032967821, "lat": 46.5631413, "lon": 19.6788086}, {"type": "node", "id": 8032967822, "lat": 46.563323, "lon": 19.6788615}, {"type": "node", "id": 8656322764, "lat": 46.55484, "lon": 19.6670609, "tags": {"addr:city": "Szank", "addr:housenumber": "20", "addr:postcode": "6131", "addr:street": "Kossuth Lajos utca", "contact:phone": "+36 77 495 701", "name": "B\u00fcszkes\u00e9gpont", "name:en": "Pride Point", "operator": "Szank K\u00f6zs\u00e9gi \u00d6nkorm\u00e1nyzat", "tourism": "museum", "url": "https://szank.hu/telepulesi-es-kornyekbeli-latnivalok/"}}, {"type": "node", "id": 9958985946, "lat": 46.2009601, "lon": 19.7811876, "tags": {"entrance": "yes"}}, {"type": "way", "id": 292053818, "nodes": [2955662811, 4850734550, 4850734549, 3882062579, 2955662812, 3882062629, 3882062622, 3882062526, 2955662814, 2955662815, 3882062471, 3882062254, 3882062240, 2955662811], "tags": {"addr:city": "Kecel", "addr:housenumber": "171/2-177", "addr:postcode": "6237", "addr:province": "B\u00e1cs-Kiskun Megye", "addr:street": "R\u00e1k\u00f3czi Ferenc utca", "name": "Haditechnikai Park \u00e9s M\u00fazeum", "name:en": "Military Park & Museum", "opening_hours": "10:00-16:00", "operator": "Pint\u00e9r M\u0171vek \u2013 Pint\u00e9r Csaba egy\u00e9ni v\u00e1llalkoz\u00f3", "tourism": "museum", "url": "http://www.honvedelem.hu/cikk/12848", "website": "http://pintermuvek.hu/hadtechnikai-park/", "wikidata": "Q855008", "wikipedia": "hu:Kecel"}}, {"type": "way", "id": 295058443, "nodes": [2987317575, 2987317574, 2987317576, 2987317577, 2987317575], "tags": {"addr:city": "M\u00e9lyk\u00fat", "addr:housenumber": "41", "addr:postcode": "6449", "addr:street": "Honv\u00e9d utca", "building": "yes", "email": "drrauzs@freemail.hu", "fee": "no", "name": "Szvetnik Joachim Eml\u00e9kh\u00e1z", "phone": "+36 20 384 6056", "tourism": "museum", "website": "http://www.szvetnikjoachim.com"}}, {"type": "way", "id": 295065873, "nodes": [2987390096, 2987390094, 2987390093, 2987390095, 2987390096], "tags": {"addr:city": "M\u00e9lyk\u00fat", "addr:housenumber": "13", "addr:postcode": "6449", "addr:street": "Dank\u00f3 Pista utca", "amenity": "planetarium", "building": "yes", "man_made": "observatory", "name": "Carl Sagan Amat\u0151r Mag\u00e1n Csillagvizsg\u00e1l\u00f3", "phone": "+36 20 384 6056", "tourism": "museum"}}, {"type": "way", "id": 295790145, "nodes": [2995495007, 2995495006, 2995495009, 2995495008, 2995495010, 2995495011, 2995495007], "tags": {"amenity": "community_centre", "building": "yes", "name": "B\u00e1cskai Hagyom\u00e1nyok Alkot\u00f3- \u00e9s Ki\u00e1ll\u00edt\u00f3h\u00e1za", "tourism": "museum"}}, {"type": "way", "id": 300713151, "nodes": [3048189528, 3048189527, 3048189529, 3048189530, 3048189528], "tags": {"addr:city": "Tompa", "addr:country": "HU", "addr:housenumber": "17", "addr:postcode": "6422", "addr:street": "Kossuth utca", "building": "yes", "name": "Gy\u0171jtem\u00e9nyek H\u00e1za", "start_date": "2007", "tourism": "museum"}}, {"type": "way", "id": 431896685, "nodes": [4311299899, 4311299895, 4311299892, 4311299894, 4311299899], "tags": {"building": "yes", "name": "K\u00e1d\u00e1r lak\u00e1s m\u00fazeum", "source": "Bing", "tourism": "museum", "website": "http://www.kochboraszat.hu/"}}, {"type": "way", "id": 493749276, "nodes": [4856264728, 4857487359, 4856264727, 4856264726, 4856264403, 4856264404, 4856264725, 4856264728], "tags": {"addr:city": "Kiskunmajsa", "addr:country": "HU", "addr:district": "Marispuszta", "addr:housenumber": "244", "addr:postcode": "6120", "addr:province": "B\u00e1cs-Kiskun Megye", "addr:street": "Marispuszta tanya", "building": "yes", "name": "56-os M\u00fazeum", "note": "A m\u00fazeum nyitva: \u00c1prilist\u00f3l p\u00e9ntek-szombat-vas\u00e1rnap, ny\u00e1ri sz\u00fcnetben folyamatosan, csoportoknak telefonos egyeztet\u00e9s alapj\u00e1n.", "operator": "Pongr\u00e1tz Gergely (+ 2005.V.)", "phone": "+36 77 581 409", "tourism": "museum", "url": "http://www.kiskunmajsa.hu/news/53317/%E2%80%9856-os_muzeum_es_kapolna", "url:geocaching.hu": "http://geocaching.hu/caches.geo?id", "website": "http://corvinista.hu/", "wikidata": "Q1491415", "wikipedia": "hu:56-os M\u00fazeum"}}, {"type": "way", "id": 549717075, "nodes": [5310080443, 9958985946, 5310080442, 5310080441, 5310080440, 5310080443], "tags": {"addr:city": "\u00c1sotthalom", "addr:housenumber": "14", "addr:postcode": "6783", "addr:street": "B\u00e9ke utca", "building": "house", "building:levels": "1", "contact:mobile": "+36 20 495 5961;+36 20 404 3590", "contact:phone": "+36 62 291 496;+36 62 660 500", "description": "Nyitvatart\u00e1s: el\u0151zetes telefonos egyeztet\u00e9s alapj\u00e1n nyitvatart\u00e1si id\u0151n k\u00edv\u00fcl is megtekinthet\u0151", "fee": "yes", "name": "R\u00f3zsa S\u00e1ndor \u00c9lm\u00e9nyh\u00e1z", "opening_hours": "Tu-Fr 09:00-17:00; Sa, Su 09:00-15:00", "payment:cash": "only", "roof:levels": "1", "tourism": "museum"}}, {"type": "way", "id": 633451644, "nodes": [5979555620, 5979555621, 5979555622, 5979740500, 5979555623, 5979555620], "tags": {"addr:city": "\u00c1sotthalom", "addr:postcode": "6783", "addr:street": "VIII. ker\u00fclet", "contact:facebook": "https://facebook.com/gatsoritanyamuzeum/", "name": "G\u00e1tsori Tanyam\u00fazeum", "tourism": "museum"}}, {"type": "way", "id": 709175996, "nodes": [6665178626, 6665178627, 6665178628, 6665178629, 6665178630, 6665178631, 6665178632, 6665178633, 6665178634, 6665178635, 6665178636, 6665178637, 6665178638, 6665178639, 6665178640, 6665178641, 6665178626], "tags": {"addr:city": "Kiskunhalas", "addr:housenumber": "37", "addr:postcode": "6400", "addr:street": "Kossuth utca", "air_conditioning": "yes", "building": "yes", "internet_access": "wlan", "name": "Csipkem\u00fazeum", "operator": "Halasi Csipke K\u00f6zalap\u00edtv\u00e1ny", "operator:type": "private_non_profit", "tourism": "museum", "website": "http://www.halasicsipke.hu/", "wheelchair": "yes"}}, {"type": "way", "id": 798173263, "nodes": [7465191097, 7465191098, 7464943464]}, {"type": "way", "id": 798173264, "nodes": [7465191097, 7465191099, 7464943464]}, {"type": "way", "id": 862151414, "nodes": [8032967812, 8032967813, 8032967814, 8032967815, 8032967816, 8032967817, 8032967818, 8032967819, 8032967820, 8032967821, 8032967822, 8032967812], "tags": {"building": "yes", "name": "Kiskun Eml\u00e9khely", "tourism": "museum"}}, {"type": "relation", "id": 11049109, "members": [{"type": "way", "ref": 798173263, "role": "outer"}, {"type": "way", "ref": 798173264, "role": "outer"}], "tags": {"addr:city": "Kiskunmajsa", "name": "Konecsni Gy\u00f6rgy Helyt\u00f6rt\u00e9neti M\u00fazeum", "opening_hours": "Mo-Fr 08:00-16:00; Sa 12:00-16:00", "tourism": "museum", "type": "multipolygon"}}]}