{"version": 0.6, "generator": "Overpass API 0.7.59 e21c39fe", "osm3s": {"timestamp_osm_base": "2023-03-01T08:42:56Z", "copyright": "The data included in this document is from www.openstreetmap.org. The data is made available under ODbL."}, "elements": [{"type": "node", "id": 2273633112, "lat": 47.3517833, "lon": 21.5684291, "tags": {"artwork_type": "statue", "tourism": "artwork"}}, {"type": "node", "id": 2285842361, "lat": 47.3510908, "lon": 21.5680101, "tags": {"artwork_type": "statue", "tourism": "artwork"}}, {"type": "node", "id": 2285842370, "lat": 47.3512173, "lon": 21.5679876, "tags": {"artwork_type": "statue", "tourism": "artwork"}}, {"type": "node", "id": 2285842371, "lat": 47.3512295, "lon": 21.5681316, "tags": {"artwork_type": "statue", "tourism": "artwork"}}, {"type": "node", "id": 2285842383, "lat": 47.3513898, "lon": 21.5678166, "tags": {"artwork_type": "statue", "tourism": "artwork"}}, {"type": "node", "id": 2912029698, "lat": 47.3500187, "lon": 21.5652668, "tags": {"artwork_type": "statue", "tourism": "artwork"}}, {"type": "node", "id": 2946063838, "lat": 47.222366, "lon": 21.5347821, "tags": {"artwork_type": "statue", "tourism": "artwork"}}, {"type": "node", "id": 2946063847, "lat": 47.2225044, "lon": 21.5345734, "tags": {"artwork_type": "statue", "tourism": "artwork"}}, {"type": "node", "id": 2946063866, "lat": 47.2228956, "lon": 21.5397154, "tags": {"artwork_type": "sculpture", "tourism": "artwork"}}, {"type": "node", "id": 2959962764, "lat": 47.0155553, "lon": 21.1727737, "tags": {"artwork_type": "statue", "name": "Pet\u0151fi S\u00e1ndor-szobor", "tourism": "artwork"}}, {"type": "node", "id": 3329072407, "lat": 47.33487, "lon": 21.091369, "tags": {"name": "Dr. T\u00fary Elem\u00e9r mellszobra", "source": "turistautak.hu", "tourism": "artwork", "url": "http://turistautak.hu/poi.php?id=124440"}}, {"type": "node", "id": 3329072415, "lat": 47.334659, "lon": 21.090679, "tags": {"name": "Ka\u00e1n K\u00e1aroly mellszobra", "source": "turistautak.hu", "tourism": "artwork", "url": "http://turistautak.hu/poi.php?id=124442"}}, {"type": "node", "id": 3432034637, "lat": 47.215917, "lon": 21.534833, "tags": {"artwork_type": "statue", "name": "Ezred\u00e9vi eml\u00e9km\u0171", "source": "turistautak.hu", "tourism": "artwork", "url": "http://turistautak.hu/poi.php?id=54485"}}, {"type": "node", "id": 3432034802, "lat": 47.213133, "lon": 21.536033, "tags": {"artwork_type": "statue", "name": "Munk\u00e1s-szobor", "source": "turistautak.hu", "tourism": "artwork", "url": "http://turistautak.hu/poi.php?id=54484"}}, {"type": "node", "id": 3432034804, "lat": 47.221645, "lon": 21.539351, "tags": {"artwork_type": "statue", "description": "Napban\u00e9z\u0151 c\u00edm\u0171 szobor", "name": "Napban\u00e9z\u0151", "source": "turistautak.hu", "tourism": "artwork", "url": "http://turistautak.hu/poi.php?id=54543"}}, {"type": "node", "id": 3445367297, "lat": 47.000524, "lon": 21.486531, "tags": {"artwork_type": "statue", "material": "wood", "source": "turistautak.hu", "source:date": "2010-06-17", "tourism": "artwork", "url": "http://turistautak.hu/poi.php?id=95941"}}, {"type": "node", "id": 3445367298, "lat": 47.13361, "lon": 21.4327, "tags": {"artwork_type": "statue", "name": "Fat\u00f6rzs szobor", "source": "turistautak.hu", "source:date": "2011-02-24", "tourism": "artwork", "url": "http://turistautak.hu/poi.php?id=111359"}}, {"type": "node", "id": 3445367426, "lat": 47.133418, "lon": 21.432402, "tags": {"artwork_type": "statue", "name": "L\u00e1ny szobor", "source": "turistautak.hu", "source:date": "2011-02-24", "tourism": "artwork", "url": "http://turistautak.hu/poi.php?id=111357"}}, {"type": "node", "id": 3445367451, "lat": 47.001565, "lon": 21.489215, "tags": {"artwork_type": "statue", "name": "N\u0151 szobor", "source": "turistautak.hu", "source:date": "2010-06-17", "tourism": "artwork", "url": "http://turistautak.hu/poi.php?id=95934"}}, {"type": "node", "id": 3445368719, "lat": 47.133597, "lon": 21.432245, "tags": {"artwork_type": "statue", "name": "\u00d6lelkez\u0151 p\u00e1r szobor", "source": "turistautak.hu", "source:date": "2011-02-24", "tourism": "artwork", "url": "http://turistautak.hu/poi.php?id=111358"}}, {"type": "node", "id": 3456352646, "lat": 47.238494, "lon": 21.187223, "tags": {"artwork_type": "statue", "name": "Pet\u0151fi S\u00e1ndor-szobor", "source": "turistautak.hu", "source:date": "2011-07-31", "tourism": "artwork", "url": "http://turistautak.hu/poi.php?id=122537"}}, {"type": "node", "id": 3456352797, "lat": 47.3177896, "lon": 21.1183362, "tags": {"artwork_type": "statue", "name": "Daru szobor", "source": "turistautak.hu", "source:date": "2010-03-26", "tourism": "artwork", "url": "http://turistautak.hu/poi.php?id=74450"}}, {"type": "node", "id": 3456352820, "lat": 47.238706, "lon": 21.187983, "tags": {"artwork_type": "statue", "name": "Gr\u00f3f Sz\u00e9chenyi Istv\u00e1n-szobor", "source": "turistautak.hu", "source:date": "2011-07-31", "tourism": "artwork", "url": "http://turistautak.hu/poi.php?id=122539"}}, {"type": "node", "id": 3456353800, "lat": 47.292885, "lon": 21.227372, "tags": {"artwork_type": "statue", "source": "turistautak.hu", "source:date": "2011-09-26", "tourism": "artwork", "url": "http://turistautak.hu/poi.php?id=125170"}}, {"type": "node", "id": 3456353889, "lat": 47.31862, "lon": 21.118741, "tags": {"artwork_type": "statue", "name": "48-as lovas szobor", "source": "turistautak.hu", "source:date": "2010-03-26", "tourism": "artwork", "url": "http://turistautak.hu/poi.php?id=74452"}}, {"type": "node", "id": 8381413971, "lat": 47.3141488, "lon": 21.1137613, "tags": {"artwork_type": "statue", "material": "metal", "name": "\u00c1d\u00e1m szobor", "tourism": "artwork"}}, {"type": "node", "id": 8381426027, "lat": 47.3198776, "lon": 21.1149727, "tags": {"artwork_type": "statue", "material": "metal", "tourism": "artwork"}}]}