{"version": 0.6, "generator": "Overpass API 0.7.59 e21c39fe", "osm3s": {"timestamp_osm_base": "2023-03-01T08:39:53Z", "copyright": "The data included in this document is from www.openstreetmap.org. The data is made available under ODbL."}, "elements": [{"type": "node", "id": 1304035073, "lat": 46.906651, "lon": 19.6924959, "tags": {"name": "K\u00e1lv\u00e1ria-szoborcsoport", "source": "http://www.kozterkep.hu/~/5901/kalvaria_szoborcsoport_kecskemet_dunaiszky_lorinc_1790.html", "tourism": "artwork", "wheelchair": "yes"}}, {"type": "node", "id": 2155870586, "lat": 46.8961261, "lon": 19.668035, "tags": {"artwork_type": "bust", "name": "Neumann J\u00e1nos-szobor", "name:en": "Bust of John von Neumann", "tourism": "artwork"}}, {"type": "node", "id": 2458341583, "lat": 46.9073263, "lon": 19.6916982}, {"type": "node", "id": 2458341584, "lat": 46.9073339, "lon": 19.6916567}, {"type": "node", "id": 2458341585, "lat": 46.9073547, "lon": 19.6916264}, {"type": "node", "id": 2458341586, "lat": 46.907383, "lon": 19.6917811}, {"type": "node", "id": 2458341587, "lat": 46.9073547, "lon": 19.69177}, {"type": "node", "id": 2458341588, "lat": 46.9073339, "lon": 19.6917396}, {"type": "node", "id": 2458341589, "lat": 46.907383, "lon": 19.6916153}, {"type": "node", "id": 2458341590, "lat": 46.9074113, "lon": 19.6916264}, {"type": "node", "id": 2458341591, "lat": 46.9074321, "lon": 19.6916567}, {"type": "node", "id": 2458341592, "lat": 46.9074396, "lon": 19.6916982}, {"type": "node", "id": 2458341593, "lat": 46.9074321, "lon": 19.6917396}, {"type": "node", "id": 2458341594, "lat": 46.9074113, "lon": 19.69177}, {"type": "node", "id": 2458457554, "lat": 46.9057635, "lon": 19.6927347}, {"type": "node", "id": 2458457555, "lat": 46.9057722, "lon": 19.6926871}, {"type": "node", "id": 2458457556, "lat": 46.905796, "lon": 19.6926522}, {"type": "node", "id": 2458457557, "lat": 46.9058286, "lon": 19.69283}, {"type": "node", "id": 2458457558, "lat": 46.905796, "lon": 19.6928172}, {"type": "node", "id": 2458457559, "lat": 46.9057722, "lon": 19.6927824}, {"type": "node", "id": 2458457560, "lat": 46.9058286, "lon": 19.6926395}, {"type": "node", "id": 2458457561, "lat": 46.9058611, "lon": 19.6926522}, {"type": "node", "id": 2458457562, "lat": 46.9058849, "lon": 19.6926871}, {"type": "node", "id": 2458457563, "lat": 46.9058936, "lon": 19.6927347}, {"type": "node", "id": 2458457564, "lat": 46.9058849, "lon": 19.6927824}, {"type": "node", "id": 2458457565, "lat": 46.9058611, "lon": 19.6928172}, {"type": "node", "id": 3439443360, "lat": 46.9065735, "lon": 19.6921204, "tags": {"artist_name": "Lakatos P\u00e1l S\u00e1ndor", "artwork_type": "sculpture", "description": "Kecskem\u00e9ten 2002-ben \u00e1ll\u00edtott\u00e1k fel a Naprendszer m\u00e9ret-, \u00e9s t\u00e1vols\u00e1gar\u00e1nyos makettj\u00e9t 1:3,3 milli\u00e1rdhoz kicsiny\u00edt\u00e9sben. A bronzb\u00f3l k\u00e9sz\u00fclt k\u00f6zt\u00e9ri szobor Lakatos P\u00e1l S\u00e1ndor szobr\u00e1szm\u0171v\u00e9sz alkot\u00e1sa.", "name": "F\u00f6ld", "source": "turistautak.hu", "source:date": "2008-04-09", "tourism": "artwork", "url": "http://turistautak.hu/poi.php?id=13183"}}, {"type": "node", "id": 3439443414, "lat": 46.911543, "lon": 19.685678, "tags": {"artwork_type": "statue", "name": "H\u00e1rom juh\u00e1sz", "source": "turistautak.hu", "source:date": "2011-06-24", "tourism": "artwork", "url": "http://turistautak.hu/poi.php?id=51638"}}, {"type": "node", "id": 3439443496, "lat": 46.90789, "lon": 19.69281, "tags": {"artwork_type": "sculpture", "description": "Kecskem\u00e9ten 2002-ben \u00e1ll\u00edtott\u00e1k fel a Naprendszer m\u00e9ret-, \u00e9s t\u00e1vols\u00e1gar\u00e1nyos makettj\u00e9t 1:3,3 milli\u00e1rdhoz kicsiny\u00edt\u00e9sben. A bronzb\u00f3l k\u00e9sz\u00fclt k\u00f6zt\u00e9ri szobor Lakatos P\u00e1l S\u00e1ndor szobr\u00e1szm\u0171v\u00e9sz alkot\u00e1sa.", "name": "Jupiter", "source": "turistautak.hu", "source:date": "2008-04-09", "tourism": "artwork", "url": "http://turistautak.hu/poi.php?id=13185"}}, {"type": "node", "id": 3439443559, "lat": 46.89802, "lon": 19.6725, "tags": {"artwork_type": "statue", "description": "F\u00e9mszobrok", "name": "K\u00c9SZ szoborpark", "source": "turistautak.hu", "source:date": "2011-06-24", "tourism": "artwork", "url": "http://turistautak.hu/poi.php?id=69569"}}, {"type": "node", "id": 3439443574, "lat": 46.912382, "lon": 19.67666, "tags": {"artwork_type": "statue", "name": "K\u0151s\u00e1rk\u00e1ny", "source": "turistautak.hu", "source:date": "2014-02-17", "tourism": "artwork", "url": "http://turistautak.hu/poi.php?id=87873"}}, {"type": "node", "id": 3439443584, "lat": 46.911887, "lon": 19.676826, "tags": {"addr:street": "G\u0151zhaj\u00f3 utca", "amenity": "recycling", "artwork_type": "statue", "name": "Lovak", "recycling:beverage_cartons": "yes", "recycling:cans": "yes", "recycling:glass_bottles": "no", "recycling:paper": "no", "recycling:plastic": "yes", "recycling_type": "container", "source": "turistautak.hu", "source:date": "2013-03-12", "tourism": "artwork", "url": "http://turistautak.hu/poi.php?id=87872"}}, {"type": "node", "id": 3439443798, "lat": 46.906285, "lon": 19.6922172, "tags": {"artist_name": "Lakatos P\u00e1l S\u00e1ndor", "artwork_type": "sculpture", "description": "Kecskem\u00e9ten 2002-ben \u00e1ll\u00edtott\u00e1k fel a Naprendszer m\u00e9ret-, \u00e9s t\u00e1vols\u00e1gar\u00e1nyos makettj\u00e9t 1:3,3 milli\u00e1rdhoz kicsiny\u00edt\u00e9sben. A bronzb\u00f3l k\u00e9sz\u00fclt k\u00f6zt\u00e9ri szobor Lakatos P\u00e1l S\u00e1ndor szobr\u00e1szm\u0171v\u00e9sz alkot\u00e1sa.", "name": "Merk\u00far", "source": "turistautak.hu", "source:date": "2008-04-09", "tourism": "artwork", "url": "http://turistautak.hu/poi.php?id=13181"}}, {"type": "node", "id": 3439443833, "lat": 46.9020024, "lon": 19.6832, "tags": {"artwork_type": "statue", "name": "M\u00e1ria-szobor", "source": "turistautak.hu", "source:date": "2010-01-16", "tourism": "artwork", "url": "http://turistautak.hu/poi.php?id=30824"}}, {"type": "node", "id": 3439443858, "lat": 46.90617, "lon": 19.69222, "tags": {"artist_name": "Lakatos P\u00e1l S\u00e1ndor", "artwork_type": "sculpture", "description": "Kecskem\u00e9ten 2002-ben \u00e1ll\u00edtott\u00e1k fel a Naprendszer m\u00e9ret-, \u00e9s t\u00e1vols\u00e1gar\u00e1nyos makettj\u00e9t 1:3,3 milli\u00e1rdhoz kicsiny\u00edt\u00e9sben. A bronzb\u00f3l k\u00e9sz\u00fclt k\u00f6zt\u00e9ri szobor Lakatos P\u00e1l S\u00e1ndor szobr\u00e1szm\u0171v\u00e9sz alkot\u00e1sa.", "name": "Nap", "source": "turistautak.hu", "source:date": "2008-04-09", "tourism": "artwork", "url": "http://turistautak.hu/poi.php?id=13178"}}, {"type": "node", "id": 3439443866, "lat": 46.91477, "lon": 19.68151, "tags": {"artwork_type": "sculpture", "description": "Kecskem\u00e9ten 2002-ben \u00e1ll\u00edtott\u00e1k fel a Naprendszer m\u00e9ret-, \u00e9s t\u00e1vols\u00e1gar\u00e1nyos makettj\u00e9t 1:3,3 milli\u00e1rdhoz kicsiny\u00edt\u00e9sben. A bronzb\u00f3l k\u00e9sz\u00fclt k\u00f6zt\u00e9ri szobor Lakatos P\u00e1l S\u00e1ndor szobr\u00e1szm\u0171v\u00e9sz alkot\u00e1sa.", "name": "Neptunusz", "source": "turistautak.hu", "source:date": "2008-04-09", "tourism": "artwork", "url": "http://turistautak.hu/poi.php?id=13188"}}, {"type": "node", "id": 3439444110, "lat": 46.91446, "lon": 19.67322, "tags": {"artwork_type": "sculpture", "description": "Kecskem\u00e9ten 2002-ben \u00e1ll\u00edtott\u00e1k fel a Naprendszer m\u00e9ret-, \u00e9s t\u00e1vols\u00e1gar\u00e1nyos makettj\u00e9t 1:3,3 milli\u00e1rdhoz kicsiny\u00edt\u00e9sben. A bronzb\u00f3l k\u00e9sz\u00fclt k\u00f6zt\u00e9ri szobor Lakatos P\u00e1l S\u00e1ndor szobr\u00e1szm\u0171v\u00e9sz alkot\u00e1sa.", "name": "Plut\u00f3", "source": "turistautak.hu", "source:date": "2008-04-09", "tourism": "artwork", "url": "http://turistautak.hu/poi.php?id=13189"}}, {"type": "node", "id": 3439444113, "lat": 46.9099491, "lon": 19.6919571, "tags": {"artist_name": "Bencsik Istv\u00e1n", "artwork_type": "sculpture", "name": "Anya gyermek\u00e9vel", "name:en": "Mother with her child", "tourism": "artwork", "year": "1964"}}, {"type": "node", "id": 3439444170, "lat": 46.909478, "lon": 19.690873, "tags": {"artwork_type": "sculpture", "description": "Kecskem\u00e9ten 2002-ben \u00e1ll\u00edtott\u00e1k fel a Naprendszer m\u00e9ret-, \u00e9s t\u00e1vols\u00e1gar\u00e1nyos makettj\u00e9t 1:3,3 milli\u00e1rdhoz kicsiny\u00edt\u00e9sben. A bronzb\u00f3l k\u00e9sz\u00fclt k\u00f6zt\u00e9ri szobor Lakatos P\u00e1l S\u00e1ndor szobr\u00e1szm\u0171v\u00e9sz alkot\u00e1sa.", "name": "Szaturnusz", "source": "turistautak.hu", "source:date": "2008-04-09", "tourism": "artwork", "url": "http://turistautak.hu/poi.php?id=13186"}}, {"type": "node", "id": 3439444244, "lat": 46.911802, "lon": 19.685535, "tags": {"artwork_type": "sculpture", "description": "Kecskem\u00e9ten 2002-ben \u00e1ll\u00edtott\u00e1k fel a Naprendszer m\u00e9ret-, \u00e9s t\u00e1vols\u00e1gar\u00e1nyos makettj\u00e9t 1:3,3 milli\u00e1rdhoz kicsiny\u00edt\u00e9sben. A bronzb\u00f3l k\u00e9sz\u00fclt k\u00f6zt\u00e9ri szobor Lakatos P\u00e1l S\u00e1ndor szobr\u00e1szm\u0171v\u00e9sz alkot\u00e1sa.", "name": "Ur\u00e1nusz", "source": "turistautak.hu", "source:date": "2008-04-09", "tourism": "artwork", "url": "http://turistautak.hu/poi.php?id=13187"}}, {"type": "node", "id": 3439444259, "lat": 46.9064726, "lon": 19.6921641, "tags": {"artist_name": "Lakatos P\u00e1l S\u00e1ndor", "artwork_type": "sculpture", "description": "Kecskem\u00e9ten 2002-ben \u00e1ll\u00edtott\u00e1k fel a Naprendszer m\u00e9ret-, \u00e9s t\u00e1vols\u00e1gar\u00e1nyos makettj\u00e9t 1:3,3 milli\u00e1rdhoz kicsiny\u00edt\u00e9sben. A bronzb\u00f3l k\u00e9sz\u00fclt k\u00f6zt\u00e9ri szobor Lakatos P\u00e1l S\u00e1ndor szobr\u00e1szm\u0171v\u00e9sz alkot\u00e1sa.", "name": "V\u00e9nusz", "source": "turistautak.hu", "source:date": "2008-04-09", "tourism": "artwork", "url": "http://turistautak.hu/poi.php?id=13182"}}, {"type": "node", "id": 3459945647, "lat": 46.93754, "lon": 19.475832, "tags": {"artwork_type": "statue", "name": "M\u00e1ria-szobor", "source": "turistautak.hu", "source:date": "2011-06-24", "tourism": "artwork", "url": "http://turistautak.hu/poi.php?id=119462", "wheelchair": "limited"}}, {"type": "node", "id": 3461941846, "lat": 46.8746856, "lon": 19.2219693, "tags": {"artwork_type": "statue", "name": "Kunbaba", "source": "turistautak.hu", "source:date": "2012-10-15", "tourism": "artwork", "url": "http://turistautak.hu/poi.php?id=122928"}}, {"type": "node", "id": 3485199010, "lat": 46.675862, "lon": 19.652432, "tags": {"artwork_type": "statue", "description": "P\u00e1sztor (faragott faszobor)", "name": "P\u00e1sztor", "source": "turistautak.hu", "source:date": "2014-03-14", "tourism": "artwork", "url": "http://turistautak.hu/poi.php?id=91045"}}, {"type": "node", "id": 4856137917, "lat": 46.8858368, "lon": 19.2320501, "tags": {"artist_name": "P\u00e1li Lajos szobr\u00e1szm\u0171v\u00e9sz", "artwork_subject": "J\u00f3zsef Attila szobra, nagyapja P\u0151cze Imre az \u201e\u00f6reg D\u00f6rm\u00f6g\u0151\u201d egykori cs\u0151szh\u00e1za udvar\u00e1n", "artwork_type": "bust", "historic": "memorial", "material": "stone", "memorial": "bust", "name": "J\u00f3zsef Attila", "source": "survey", "start_date": "1971-04-11; 2005-04-11", "tourism": "artwork", "website": "https://www.kozterkep.hu/6640/jozsef-attila", "wikidata": "Q313359", "wikipedia": "hu:J\u00f3zsef Attila"}}, {"type": "node", "id": 5893501792, "lat": 46.9011887, "lon": 19.6464709, "tags": {"artwork_type": "sculpture", "highway": "street_lamp", "name": "L\u00e1mpa", "tourism": "artwork"}}, {"type": "node", "id": 6246298944, "lat": 46.9067656, "lon": 19.6919971, "tags": {"artist_name": "Lakatos P\u00e1l S\u00e1ndor", "artwork_type": "sculpture", "description": "Kecskem\u00e9ten 2002-ben \u00e1ll\u00edtott\u00e1k fel a Naprendszer m\u00e9ret-, \u00e9s t\u00e1vols\u00e1gar\u00e1nyos makettj\u00e9t 1:3,3 milli\u00e1rdhoz kicsiny\u00edt\u00e9sben. A bronzb\u00f3l k\u00e9sz\u00fclt k\u00f6zt\u00e9ri szobor Lakatos P\u00e1l S\u00e1ndor szobr\u00e1szm\u0171v\u00e9sz alkot\u00e1sa.", "material": "metal", "name": "Mars", "source": "turistautak.hu", "source:date": "2008-04-09", "tourism": "artwork", "url": "http://turistautak.hu/poi.php?id=13183"}}, {"type": "node", "id": 6602204619, "lat": 46.5681272, "lon": 19.7593624, "tags": {"artwork_type": "sculpture", "mapillary": "178149680763752", "tourism": "artwork"}}, {"type": "node", "id": 8049819835, "lat": 46.8959448, "lon": 19.6566893, "tags": {"artwork_type": "graffiti", "tourism": "artwork"}}, {"type": "node", "id": 8137155488, "lat": 46.9201582, "lon": 19.715175, "tags": {"addr:city": "Kecskem\u00e9t", "addr:housenumber": "71", "addr:postcode": "6000", "addr:street": "B\u00e9ke fasor", "artist_name": "M\u00fcller Rezs\u0151;Sikl\u00f3dy L\u0151rinc;M\u00e1rton Ferenc", "artwork_subject": "Katona J\u00f3zsef dr\u00e1ma\u00edr\u00f3 s\u00edreml\u00e9ke", "contact:website": "https://www.kozterkep.hu/6280/katona-jozsef-siremleke", "historic": "tomb", "material": "stone", "name": "Katona J\u00f3zsef", "official_name": "Katona J\u00f3zsef s\u00edreml\u00e9ke", "religion": "christian", "start_date": "1930;1963", "tomb": "tombstone", "tourism": "artwork", "wikidata": "Q149415", "wikipedia": "hu:Katona J\u00f3zsef (\u00edr\u00f3)"}}, {"type": "node", "id": 8137172964, "lat": 46.9203881, "lon": 19.715234, "tags": {"artist_name": "Melocco Mikl\u00f3s szobr\u00e1szm\u0171v\u00e9sz", "artwork_subject": "M\u00e9sz\u00f6ly Gyula biol\u00f3gus s\u00edreml\u00e9ke", "artwork_type": "sculpture", "contact:website": "https://www.kozterkep.hu/23666/meszoly-gyula-siremleke#", "description": "M\u00e9sz\u00f6ly Gyula (Suhopolje 1910. janu\u00e1r 6. \u2013 Kecskem\u00e9t, 1974. m\u00e1rcius 18.) Kossuth-d\u00edjas n\u00f6v\u00e9nynemes\u00edt\u0151, biol\u00f3gus, az MTA rendes tagja. Az eml\u00e9km\u0171vet ellopt\u00e1k, elt\u0171nt.", "historic": "tomb", "material": "bronze", "name": "M\u00e9sz\u00f6ly Gyula", "start_date": "1975-03-18", "tourism": "artwork", "wikidata": "Q128178", "wikipedia": "hu:M\u00e9sz\u00f6ly Gyula"}}, {"type": "node", "id": 8137252562, "lat": 46.9208626, "lon": 19.7132358, "tags": {"artist_name": "Horvay J\u00e1nos", "artwork_subject": "Vujovich csal\u00e1d s\u00edreml\u00e9ke", "artwork_type": "statue", "colour": "white", "contact:website": "https://www.kozterkep.hu/12423/vujovich-csalad-siremleke", "description": "Krisztus \u00e9gre n\u00e9z\u0151, 2m magas feh\u00e9r m\u00e1rv\u00e1ny szobra", "historic": "tomb", "inscription": "'\u00c9n vagyok a felt\u00e1mad\u00e1s \u00e9s az \u00e9let' / Vujovich csal\u00e1d", "material": "marble", "name": "Vujovich csal\u00e1d", "start_date": "1935", "tourism": "artwork"}}, {"type": "node", "id": 8137252564, "lat": 46.920357, "lon": 19.7153521, "tags": {"artist_name": "Ker\u00e9nyi J\u00f3zsef", "artwork_subject": "Kocsis P\u00e1l sz\u0151l\u0151nemes\u00edt\u0151 s\u00edreml\u00e9ke", "artwork_type": "statue", "contact:website": "https://www.kozterkep.hu/24151/kocsis-pal-siremleke", "historic": "tomb", "material": "stone", "name": "Kocsis P\u00e1l", "start_date": "1975", "tourism": "artwork", "wikidata": "Q1114722", "wikipedia": "hu:Kocsis P\u00e1l (nemes\u00edt\u0151)"}}, {"type": "node", "id": 8137252565, "lat": 46.9205054, "lon": 19.7154647, "tags": {"artist_name": "P\u00e1lfy Guszt\u00e1v szobr\u00e1szm\u0171v\u00e9sz; Farkas G\u00e1bor (\u00e9p\u00edt\u00e9sz", "artwork_subject": "Reile G\u00e9za \u00f6k\u00f6lv\u00edv\u00f3, Kecskem\u00e9t tan\u00e1cslen\u00f6k\u00e9nek s\u00edreml\u00e9ke", "artwork_type": "statue", "contact:website": "https://www.kozterkep.hu/24038/reile-geza-siremleke#", "historic": "tomb", "material": "stone", "name": "Reile G\u00e9za", "start_date": "1978", "tourism": "artwork"}}, {"type": "node", "id": 8137252566, "lat": 46.9204788, "lon": 19.7153614, "tags": {"artist_name": "Imre G\u00e1bor szobr\u00e1szm\u0171v\u00e9sz", "artwork_subject": "T\u00f3th L\u00e1szl\u00f3 sakkoz\u00f3, kecskem\u00e9ti polg\u00e1rmester s\u00edreml\u00e9ke", "artwork_type": "statue", "contact:website": "https://www.kozterkep.hu/24352/toth-laszlo-siremleke", "historic": "tomb", "material": "bronze", "name": "T\u00f3th L\u00e1szl\u00f3", "start_date": "1965", "tourism": "artwork", "wikidata": "Q18278827", "wikipedia": "hu:T\u00f3th L\u00e1szl\u00f3 (sakkoz\u00f3)"}}, {"type": "node", "id": 8773366869, "lat": 46.6199252, "lon": 19.2847301, "tags": {"artwork_type": "sculpture", "name": "Kisk\u0151r\u0151s felirat", "tourism": "artwork"}}, {"type": "node", "id": 8857454973, "lat": 46.9579881, "lon": 19.2942473, "tags": {"artwork_type": "statue", "name": "Kun Eml\u00e9km\u0171", "tourism": "artwork"}}, {"type": "node", "id": 8857454974, "lat": 46.9214896, "lon": 19.1815234, "tags": {"artwork_type": "statue", "name": "Kun Eml\u00e9khalom Kunbab\u00e1val", "start_date": "2009", "tourism": "artwork"}}, {"type": "node", "id": 9026155512, "lat": 46.9083272, "lon": 19.6942375, "tags": {"artwork_type": "statue", "fixme": "Name and other info needed.", "material": "copper", "name": "Mikrokozmosz a makrokozmoszban", "tourism": "artwork"}}, {"type": "node", "id": 9179748592, "lat": 46.8755411, "lon": 19.2220446, "tags": {"artist_name": "Both L\u00e1szl\u00f3 (fafarag\u00f3);\u00c9gerh\u00e1zy L\u00e1szl\u00f3 (fafarag\u00f3)", "description": "Sz\u00e9kelykapu latin \u00e9s rov\u00e1s bet\u0171kkel \u00edrt sz\u00f6vegekkel.", "inscription": "\ud803\udc8c\ud803\udc9e\ud803\udc96 \ud803\udca5\ud803\udc8b\ud803\udc93\ud803\udc89\ud803\udc97\u2e41\u200f \ud803\udc8c\ud803\udc9e\ud803\udc96 F\u00d6L SZ\u00c9KELY, F\u00d6L;\ud803\udc80 \ud803\udc82\ud803\udc80\ud803\udca2\ud803\udc8d\ud803\udcaa\ud803\udcaf\ud803\udc90\ud803\udc99\ud803\udc90 \ud803\udca6\ud803\udc90\ud803\udca6\ud803\udc93\ud803\udc9b\ud803\udca4 \ud803\udc8c\ud803\udc9b\ud803\udc8d\ud803\udc9b\ud803\udc97;A BARGUZINI TITKOS FOGOLY", "name": "sz\u00e9kelykapu", "note": "E sz\u00e9kelykapu \u00e1ll\u00edt\u00e1s\u00e1t a M.V.Sz. a Fuksz S\u00e1ndor vezette Pet\u0151fi S\u00e1ndor bizotts\u00e1ga kezdem\u00e9nyezte", "source": "https://www.kozterkep.hu/35676/diszes-szekelykapu#", "start_date": "2017.09.23.", "tourism": "artwork"}}, {"type": "way", "id": 237976807, "nodes": [2458341586, 2458341587, 2458341588, 2458341583, 2458341584, 2458341585, 2458341589, 2458341590, 2458341591, 2458341592, 2458341593, 2458341594, 2458341586], "tags": {"name": "Ir\u00e1nydomb", "source": "turistautak.hu", "source:date": "2010-01-16", "tourism": "artwork", "url": "http://turistautak.hu/poi.php?id=19458"}}, {"type": "way", "id": 237988891, "nodes": [2458457557, 2458457558, 2458457559, 2458457554, 2458457555, 2458457556, 2458457560, 2458457561, 2458457562, 2458457563, 2458457564, 2458457565, 2458457557], "tags": {"name": "Szenth\u00e1roms\u00e1g-szobor", "name:en": "Statue of Holy Trinity", "tourism": "artwork", "wheelchair": "yes"}}]}