{"version": 0.6, "generator": "Overpass API 0.7.59 e21c39fe", "osm3s": {"timestamp_osm_base": "2023-03-01T08:17:23Z", "copyright": "The data included in this document is from www.openstreetmap.org. The data is made available under ODbL."}, "elements": [{"type": "node", "id": 3468131052, "lat": 46.8029, "lon": 20.5266, "tags": {"name": "\u00d6reg rep\u00fcl\u0151", "source": "turistautak.hu", "source:date": "2012-08-01", "tourism": "attraction", "url": "http://turistautak.hu/poi.php?id=136212"}}, {"type": "node", "id": 4353598391, "lat": 46.8724463, "lon": 20.5289185, "tags": {"addr:city": "Szarvas", "addr:housenumber": "9", "addr:postcode": "5540", "addr:street": "I. K\u00fclker\u00fclet", "email": "info@minimagyarorszag.hu", "name": "Mini Magyarorsz\u00e1g", "name:en": "Model Park Mini Magyarorsz\u00e1g", "name:hu": "Mini Magyarorsz\u00e1g", "phone": "+36 66 312 344", "toilets:wheelchair": "yes", "tourism": "attraction", "website": "http://minimagyarorszag.hu/", "wheelchair": "yes", "wheelchair:description": "Mini Magyarorsz\u00e1g eg\u00e9sz ter\u00fclete akad\u00e1lymentes\u00edtett. kerekessz\u00e9kes toalett, pelenk\u00e1z\u00f3 is van."}}, {"type": "node", "id": 6738264398, "lat": 46.9126741, "lon": 20.5614762, "tags": {"name": "Hal\u00e1sztelki tan\u00f6sv\u00e9ny", "tourism": "attraction", "website": "https://www.kmnp.hu/kapcsolat"}}, {"type": "node", "id": 9151064248, "lat": 46.8562114, "lon": 20.5276946, "tags": {"name": "Talaj- \u00e9s \u00e9l\u0151vil\u00e1gbemutat\u00f3", "tourism": "attraction"}}, {"type": "node", "id": 9151064258, "lat": 46.8538339, "lon": 20.531348, "tags": {"name": "Mezitl\u00e1bas bemutat\u00f3", "tourism": "attraction"}}, {"type": "node", "id": 9151064259, "lat": 46.8536838, "lon": 20.5316131, "tags": {"name": "L\u00f6szn\u00f6v\u00e9ny bemutat\u00f3", "tourism": "attraction"}}, {"type": "node", "id": 9151064261, "lat": 46.8530871, "lon": 20.5326944, "tags": {"name": "Mad\u00e1rod\u00fa bemutat\u00f3", "tourism": "attraction"}}, {"type": "node", "id": 9151064262, "lat": 46.8521891, "lon": 20.5339076, "tags": {"name": "K\u00e1kafoki-holt\u00e1g vizes \u00e9l\u0151hely bemutat\u00f3", "tourism": "attraction"}}, {"type": "node", "id": 9151064299, "lat": 46.852871, "lon": 20.531558, "tags": {"name": "Partifecske partfal", "tourism": "attraction"}}, {"type": "node", "id": 9151064300, "lat": 46.8531577, "lon": 20.5309221, "tags": {"attraction": "animal", "name": "Vizes \u00e9l\u0151hely", "tourism": "attraction"}}, {"type": "node", "id": 9151064304, "lat": 46.852846, "lon": 20.529274, "tags": {"attraction": "animal", "name": "\u00c1llatsimogat\u00f3", "tourism": "attraction"}}]}