{"version": 0.6, "generator": "Overpass API 0.7.59 e21c39fe", "osm3s": {"timestamp_osm_base": "2023-03-01T09:14:24Z", "copyright": "The data included in this document is from www.openstreetmap.org. The data is made available under ODbL."}, "elements": [{"type": "node", "id": 1948070068, "lat": 46.1265149, "lon": 19.3310456}, {"type": "node", "id": 1948070237, "lat": 46.1264793, "lon": 19.3308454}, {"type": "node", "id": 1948070313, "lat": 46.1263775, "lon": 19.3308777}, {"type": "node", "id": 1948070331, "lat": 46.1265244, "lon": 19.3311082}, {"type": "node", "id": 1948070395, "lat": 46.1264179, "lon": 19.331142}, {"type": "node", "id": 1948070408, "lat": 46.126492, "lon": 19.3309283}, {"type": "node", "id": 1948070430, "lat": 46.1265331, "lon": 19.3309152}, {"type": "node", "id": 1948070442, "lat": 46.1265512, "lon": 19.3310341}, {"type": "node", "id": 2999832651, "lat": 46.1267894, "lon": 19.3322908, "tags": {"name": "Dulity Tibor K\u00e9pt\u00e1r", "tourism": "museum"}}, {"type": "node", "id": 2999832722, "lat": 46.1285, "lon": 19.3249078}, {"type": "node", "id": 2999832723, "lat": 46.1285592, "lon": 19.3253261}, {"type": "node", "id": 2999832724, "lat": 46.1285775, "lon": 19.324885}, {"type": "node", "id": 2999832725, "lat": 46.1286367, "lon": 19.3253033}, {"type": "node", "id": 5580885189, "lat": 46.1211374, "lon": 19.4754405, "tags": {"tourism": "museum"}}, {"type": "way", "id": 184341371, "nodes": [1948070237, 1948070408, 1948070430, 1948070442, 1948070068, 1948070331, 1948070395, 1948070313, 1948070237], "tags": {"alt_name": "Siskovics-k\u00faria", "building": "yes", "historic": "yes", "name": "Gy\u0171jtem\u00e9nyek H\u00e1za", "tourism": "museum"}}, {"type": "way", "id": 296191060, "nodes": [2999832725, 2999832723, 2999832722, 2999832724, 2999832725], "tags": {"addr:city": "B\u00e1csalm\u00e1s", "addr:country": "HU", "addr:housenumber": "49", "addr:postcode": "6430", "addr:street": "Kossuth Lajos utca", "building": "yes", "email": "skurutyak@kekfesto.hu", "name": "Skoruty\u00e1k K\u00e9kfest\u0151 Gy\u0171jtem\u00e9ny", "phone": "+36 79 341 549", "tourism": "museum", "website": "http://www.kekfesto.hu"}}]}