{"version": 0.6, "generator": "Overpass API 0.7.59 e21c39fe", "osm3s": {"timestamp_osm_base": "2023-03-01T09:24:30Z", "copyright": "The data included in this document is from www.openstreetmap.org. The data is made available under ODbL."}, "elements": [{"type": "node", "id": 3465220219, "lat": 46.4695101, "lon": 16.7171281, "tags": {"name": "\u00d6reghegyi Pincem\u00fazeum", "source": "turistautak.hu", "source:date": "2013-09-04", "tourism": "museum", "url": "http://turistautak.hu/poi.php?id=32425"}}, {"type": "node", "id": 6306398623, "lat": 46.4329553, "lon": 16.73468}, {"type": "node", "id": 6306398624, "lat": 46.4328962, "lon": 16.7344415}, {"type": "node", "id": 6306398625, "lat": 46.4328452, "lon": 16.7344681}, {"type": "node", "id": 6306398626, "lat": 46.4329043, "lon": 16.7347066}, {"type": "way", "id": 673418220, "nodes": [6306398623, 6306398624, 6306398625, 6306398626, 6306398623], "tags": {"addr:city": "Letenye", "addr:housenumber": "21", "addr:postcode": "8868", "addr:street": "Pozsonyi utca", "building": "yes", "email": "famahaza@gmail.com", "museum": "local", "name": "F\u00e1ma H\u00e1za", "operator": "Leteny\u00e9\u00e9rt K\u00f6z\u00e9leti Egyes\u00fclet", "tourism": "museum", "website": "https://famahaza.eoldal.hu/"}}]}