{"version": 0.6, "generator": "Overpass API 0.7.59 e21c39fe", "osm3s": {"timestamp_osm_base": "2023-03-01T08:45:59Z", "copyright": "The data included in this document is from www.openstreetmap.org. The data is made available under ODbL."}, "elements": [{"type": "node", "id": 3465156712, "lat": 47.9908, "lon": 22.512461, "tags": {"name": "Sz\u00e9kelykapu", "source": "turistautak.hu", "source:date": "2014-03-27", "tourism": "artwork", "url": "http://turistautak.hu/poi.php?id=8630"}}, {"type": "node", "id": 3501617968, "lat": 48.1042943, "lon": 22.7808849, "tags": {"artwork_type": "sculpture", "name": "Di\u00f3 eml\u00e9km\u0171", "tourism": "artwork"}}, {"type": "node", "id": 5270866608, "lat": 47.8361666, "lon": 22.6792466, "tags": {"name": "Testv\u00e9rv\u00e1rosok oszlopa", "tourism": "artwork"}}, {"type": "node", "id": 10045720083, "lat": 48.1284032, "lon": 22.3138269, "tags": {"artwork_type": "statue", "name": "II. R\u00e1k\u00f3czi Ferenc", "tourism": "artwork"}}, {"type": "node", "id": 10046918938, "lat": 48.0898158, "lon": 22.8034827, "tags": {"artist_name": "Mihajlo Kolodko", "artist_name:hu": "Kolodko Mih\u00e1ly", "artwork_type": "statue", "contact:email": "info@kolodkoart.com", "contact:facebook": "https://www.facebook.com/misha.kolodko", "contact:instagram": "kolodkomini", "contact:website": "http://kolodkoart.com/", "name": "S\u00f3keresked\u0151", "source": "https://batortv.hu/hir/miniszobor-emlekeztet-az-egykori-soutra/296", "start_date": "2021-02-26", "tourism": "artwork"}}, {"type": "node", "id": 10157723372, "lat": 47.8526813, "lon": 22.5624385, "tags": {"artwork_type": "statue", "material": "stone", "name": "Felszabadul\u00e1si eml\u00e9km\u0171", "tourism": "artwork"}}, {"type": "node", "id": 10162049798, "lat": 47.8829427, "lon": 22.5676354, "tags": {"artwork_type": "statue", "name": "Kiss \u00c1ron", "tourism": "artwork"}}]}