{"version": 0.6, "generator": "Overpass API 0.7.59 e21c39fe", "osm3s": {"timestamp_osm_base": "2023-03-01T08:18:22Z", "copyright": "The data included in this document is from www.openstreetmap.org. The data is made available under ODbL."}, "elements": [{"type": "node", "id": 615493420, "lat": 48.403388, "lon": 22.155256, "tags": {"boundary": "marker", "name": "Tripoint SK - UA - HU", "name:sk": "Trojmedzie Slovensko - Ukrajina - Ma\u010farsko", "name:uk": "\u0422\u0440\u0438\u0444\u0456\u043d\u0456\u044f \u0423\u043a\u0440\u0430\u0457\u043d\u0430 - \u0423\u0433\u043e\u0440\u0449\u0438\u043d\u0430 - \u0421\u043b\u043e\u0432\u0430\u0447\u0447\u0438\u043d\u0430", "tourism": "attraction"}}, {"type": "node", "id": 3209738707, "lat": 48.3844753, "lon": 21.7208443, "tags": {"addr:city": "Klin nad Bodrogom", "addr:postcode": "07631", "addr:street": "Hlavn\u00e1", "description": "94.3 m n. m.", "ele": "94.3", "name": "Najni\u017e\u0161ia nadmorsk\u00e1 v\u00fd\u0161ka na Slovensku", "name:en": "Lowest altitude in Slovakia", "name:hu": "Szlov\u00e1kia legalacsonyabban l\u00e9v\u0151 pontja", "name:sk": "Najni\u017e\u0161ia nadmorsk\u00e1 v\u00fd\u0161ka na Slovensku", "tourism": "attraction"}}, {"type": "node", "id": 3471770294, "lat": 48.219833, "lon": 22.080167, "tags": {"name": "Bar\u00e1ts\u00e1g kertje", "source": "turistautak.hu", "source:date": "2015-01-24", "tourism": "attraction", "url": "http://turistautak.hu/poi.php?id=176148", "wheelchair": "yes"}}, {"type": "node", "id": 8670521332, "lat": 48.2186237, "lon": 22.2117621, "tags": {"addr:street": "Ricsikai erd\u0151", "name": "R\u00e1k\u00f3czi fa (300 \u00e9ves kocs\u00e1nyos t\u00f6lgy)", "tourism": "attraction"}}, {"type": "node", "id": 10055552039, "lat": 48.2405674, "lon": 22.0804593, "tags": {"name": "R\u00e9gi t\u0171zolt\u00f3szek\u00e9r", "tourism": "attraction"}}, {"type": "node", "id": 10082717940, "lat": 48.3231028, "lon": 22.2663059, "tags": {"historic": "fire_station", "name": "R\u00e9gi t\u0171zolt\u00f3szek\u00e9r", "tourism": "attraction"}}]}