{"version": 0.6, "generator": "Overpass API 0.7.59 e21c39fe", "osm3s": {"timestamp_osm_base": "2023-03-01T09:23:30Z", "copyright": "The data included in this document is from www.openstreetmap.org. The data is made available under ODbL."}, "elements": [{"type": "node", "id": 1112948279, "lat": 47.2522575, "lon": 16.9369227, "tags": {"addr:city": "S\u00e1rv\u00e1r", "addr:housenumber": "1", "addr:postcode": "9600", "addr:street": "V\u00e1rker\u00fclet", "email": "info@nadasdymuzeum.hu", "fee": "yes", "name": "N\u00e1dasdy Ferenc V\u00e1rm\u00fazeum", "opening_hours": "Tu-Su 09:00-17:00", "phone": "+36 95 320 158", "tourism": "museum", "website": "http://nadasdymuzeum.hu/"}}, {"type": "node", "id": 1178862017, "lat": 46.96449, "lon": 17.2906097}, {"type": "node", "id": 1178862076, "lat": 46.9643976, "lon": 17.2907318}, {"type": "node", "id": 1178862092, "lat": 46.9644511, "lon": 17.2908188}, {"type": "node", "id": 1178862116, "lat": 46.9645435, "lon": 17.2906967}, {"type": "node", "id": 1915165146, "lat": 47.171904, "lon": 17.1200301}, {"type": "node", "id": 1915165174, "lat": 47.1719847, "lon": 17.120308}, {"type": "node", "id": 1915165175, "lat": 47.1720626, "lon": 17.1202591}, {"type": "node", "id": 1915165178, "lat": 47.171982, "lon": 17.1199811}, {"type": "node", "id": 2408241803, "lat": 46.9807193, "lon": 17.2817596, "tags": {"name": "P\u00fcsp\u00f6ki palota", "tourism": "museum"}}, {"type": "node", "id": 2408242414, "lat": 46.9800457, "lon": 17.2803812, "tags": {"name": "Kisfaludy S\u00e1ndor sz\u00fcl\u0151h\u00e1za", "tourism": "museum"}}, {"type": "node", "id": 2940484127, "lat": 47.0489788, "lon": 16.7994277, "tags": {"name": "Vasv\u00e1ri M\u00fazeum", "tourism": "museum"}}, {"type": "node", "id": 3197854365, "lat": 47.2323973, "lon": 17.1283378}, {"type": "node", "id": 3197854366, "lat": 47.2324304, "lon": 17.1285396}, {"type": "node", "id": 3197854367, "lat": 47.2325337, "lon": 17.1282893}, {"type": "node", "id": 3197854368, "lat": 47.2325668, "lon": 17.1284911}, {"type": "node", "id": 3255801280, "lat": 47.2312493, "lon": 17.1199766}, {"type": "node", "id": 3255801281, "lat": 47.231292, "lon": 17.120262}, {"type": "node", "id": 3255801282, "lat": 47.2311902, "lon": 17.120295}, {"type": "node", "id": 3255801283, "lat": 47.2311476, "lon": 17.1200095}, {"type": "node", "id": 3276984669, "lat": 47.2389401, "lon": 17.0227883}, {"type": "node", "id": 3276984671, "lat": 47.2390085, "lon": 17.0227284}, {"type": "node", "id": 3276984672, "lat": 47.2389686, "lon": 17.0228591}, {"type": "node", "id": 3276984675, "lat": 47.2390371, "lon": 17.0227992}, {"type": "node", "id": 3344436704, "lat": 47.2999361, "lon": 17.1268295}, {"type": "node", "id": 3344436706, "lat": 47.2999696, "lon": 17.1269088, "tags": {"cellar:type": "rock", "cellar:use": "wine", "man_made": "cellar_entrance"}}, {"type": "node", "id": 3344436707, "lat": 47.2999979, "lon": 17.1267728}, {"type": "node", "id": 3344436708, "lat": 47.3000046, "lon": 17.1269918}, {"type": "node", "id": 3344436709, "lat": 47.3000664, "lon": 17.126935}, {"type": "node", "id": 3396652930, "lat": 47.2364839, "lon": 17.2407221, "tags": {"name": "Helyt\u00f6rt\u00e9neti gy\u0171jtem\u00e9ny", "tourism": "museum"}}, {"type": "node", "id": 3419478286, "lat": 47.177891, "lon": 17.2915565}, {"type": "node", "id": 3419478287, "lat": 47.1779191, "lon": 17.2916709}, {"type": "node", "id": 3419478288, "lat": 47.1779828, "lon": 17.291637}, {"type": "node", "id": 3419478289, "lat": 47.1780103, "lon": 17.2917486}, {"type": "node", "id": 3419478290, "lat": 47.1780531, "lon": 17.2914702}, {"type": "node", "id": 3419478291, "lat": 47.1781087, "lon": 17.2916962}, {"type": "node", "id": 3466293416, "lat": 47.117776, "lon": 17.31325, "tags": {"name": "Helyt\u00f6rt\u00e9neti gy\u0171jtem\u00e9ny", "source": "turistautak.hu", "source:date": "2011-06-25", "tourism": "museum", "url": "http://turistautak.hu/poi.php?id=112961"}}, {"type": "node", "id": 3469861470, "lat": 47.2179722, "lon": 16.9336666, "tags": {"name": "Ikerv\u00e1ri V\u00edzier\u0151m\u0171 \u00e9s M\u00fazeum", "source": "turistautak.hu", "source:date": "2015-03-03", "tourism": "museum", "url": "http://turistautak.hu/poi.php?id=432"}}, {"type": "node", "id": 3470021930, "lat": 46.941807, "lon": 17.0075, "tags": {"name": "\u00d6kol\u00f3giai bemutat\u00f3hely", "source": "turistautak.hu", "source:date": "2012-05-11", "tourism": "museum", "url": "http://turistautak.hu/poi.php?id=121991"}}, {"type": "node", "id": 3474960280, "lat": 47.15587, "lon": 16.807445, "tags": {"name": "Helyt\u00f6rt\u00e9neti M\u00fazeum", "source": "turistautak.hu", "source:date": "2013-04-06", "tourism": "museum", "url": "http://turistautak.hu/poi.php?id=152159"}}, {"type": "node", "id": 3487697459, "lat": 47.182009, "lon": 17.18708, "tags": {"name": "Boba Falum\u00fazeum", "source": "turistautak.hu", "source:date": "2011-09-06", "tourism": "museum", "url": "http://turistautak.hu/poi.php?id=97107"}}, {"type": "node", "id": 3487697699, "lat": 47.187999, "lon": 17.094324, "tags": {"name": "Temet\u0151 eml\u00e9kpark", "source": "turistautak.hu", "source:date": "2015-03-03", "tourism": "museum", "url": "http://turistautak.hu/poi.php?id=78031"}}, {"type": "node", "id": 3522189803, "lat": 47.0726465, "lon": 16.899309}, {"type": "node", "id": 3522189804, "lat": 47.0726527, "lon": 16.8989733}, {"type": "node", "id": 3522189805, "lat": 47.0727702, "lon": 16.8993139}, {"type": "node", "id": 3522189806, "lat": 47.0727764, "lon": 16.8989782}, {"type": "node", "id": 3522221693, "lat": 47.0726494, "lon": 16.8991514}, {"type": "node", "id": 3733595073, "lat": 47.0457563, "lon": 16.9558769}, {"type": "node", "id": 3733595074, "lat": 47.0456566, "lon": 16.955912}, {"type": "node", "id": 3733595075, "lat": 47.0456704, "lon": 16.9559963}, {"type": "node", "id": 3733595076, "lat": 47.0456948, "lon": 16.9559877}, {"type": "node", "id": 3733595077, "lat": 47.0457303, "lon": 16.9562052}, {"type": "node", "id": 3733595078, "lat": 47.0458057, "lon": 16.9561787}, {"type": "node", "id": 3813058230, "lat": 47.1177329, "lon": 17.0569467}, {"type": "node", "id": 3813058231, "lat": 47.1177359, "lon": 17.0567511}, {"type": "node", "id": 3813058232, "lat": 47.1178178, "lon": 17.0569495}, {"type": "node", "id": 3813058233, "lat": 47.1178208, "lon": 17.0567539}, {"type": "node", "id": 5045936234, "lat": 47.0860478, "lon": 17.0240015}, {"type": "node", "id": 5045936235, "lat": 47.0859583, "lon": 17.0242107}, {"type": "node", "id": 5045936236, "lat": 47.086036, "lon": 17.0242824}, {"type": "node", "id": 5045936237, "lat": 47.0861255, "lon": 17.0240732}, {"type": "node", "id": 5203924521, "lat": 46.9783558, "lon": 17.2795163, "tags": {"addr:street": "H\u00e9t vez\u00e9r", "name": "S\u00fcmegi afrik\u00e1rium", "name:hu": "S\u00fcmegi afrik\u00e1rium", "opening_hours": "Tu-Su 10:00-18:00", "tourism": "museum"}}, {"type": "node", "id": 5203988523, "lat": 46.9834458, "lon": 17.2861075, "tags": {"name": "Utaz\u00f3kocsi m\u00fazeum", "name:hu": "Utaz\u00f3kocsi m\u00fazeum", "tourism": "museum"}}, {"type": "node", "id": 5584200679, "lat": 47.2973542, "lon": 17.2251661, "tags": {"addr:city": "K\u00fcls\u0151vat", "addr:housenumber": "70", "addr:postcode": "9532", "addr:street": "Kossuth Lajos utca", "name": "K\u00fcls\u0151vati Helyt\u00f6rt\u00e9neti Ki\u00e1ll\u00edt\u00f3hely", "opening_hours": "Mo-Fr 08:00-17:00", "tourism": "museum"}}, {"type": "node", "id": 6094181272, "lat": 46.9801231, "lon": 16.8094386}, {"type": "node", "id": 6094181273, "lat": 46.9799988, "lon": 16.8094766}, {"type": "node", "id": 6094181274, "lat": 46.9800162, "lon": 16.8095989}, {"type": "node", "id": 6094181275, "lat": 46.9801405, "lon": 16.8095609}, {"type": "node", "id": 6717365872, "lat": 47.1836284, "lon": 16.7491318, "tags": {"addr:city": "Vassz\u00e9cseny", "addr:housenumber": "2", "addr:postcode": "9763", "addr:street": "Gy\u00f6ngy\u00f6s utca", "name": "\u00c1sv\u00e1nym\u00fazeum", "operator": "P\u0151d\u00f6r Gy\u00f6rgy", "operator:type": "public", "source": "survey;poet.hu", "tourism": "museum"}}, {"type": "way", "id": 102141102, "nodes": [1178862017, 1178862076, 1178862092, 1178862116, 1178862017], "tags": {"building": "yes", "name": "\u0150skori kovab\u00e1nya bemutat\u00f3 hely", "tourism": "museum"}}, {"type": "way", "id": 181065091, "nodes": [1915165174, 1915165146, 1915165178, 1915165175, 1915165174], "tags": {"building": "residential", "name": "Berzsenyi D\u00e1niel sz\u00fcl\u0151h\u00e1za", "tourism": "museum"}}, {"type": "way", "id": 313756697, "nodes": [3197854368, 3197854366, 3197854365, 3197854367, 3197854368], "tags": {"building": "yes", "name": "Kemenes Vulk\u00e1npark", "tourism": "museum", "website": "http://www.kemenesvulkanpark.hu", "wheelchair": "yes"}}, {"type": "way", "id": 319170597, "nodes": [3255801280, 3255801281, 3255801282, 3255801283, 3255801280], "tags": {"building": "yes", "name": "S\u00e1g-hegyi M\u00fazeum", "tourism": "museum"}}, {"type": "way", "id": 320996014, "nodes": [3276984672, 3276984669, 3276984671, 3276984675, 3276984672], "tags": {"building": "yes", "tourism": "museum"}}, {"type": "way", "id": 327632564, "nodes": [3344436708, 3344436709, 3344436707, 3344436704, 3344436706, 3344436708], "tags": {"building": "yes", "name": "Berzsenyi-pince", "tourism": "museum"}}, {"type": "way", "id": 334832650, "nodes": [3419478286, 3419478290, 3419478291, 3419478289, 3419478288, 3419478287, 3419478286], "tags": {"addr:city": "Iszk\u00e1z", "addr:country": "HU", "addr:housenumber": "1", "addr:postcode": "8493", "addr:street": "Ady Endre utca", "building": "yes", "name": "Nagy L\u00e1szl\u00f3 Eml\u00e9kh\u00e1z", "tourism": "museum"}}, {"type": "way", "id": 345578297, "nodes": [3522189806, 3522189804, 3522221693, 3522189803, 3522189805, 3522189806], "tags": {"amenity": "community_centre", "building": "yes", "name": "Ambr\u00f3zy eml\u00e9kh\u00e1z", "tourism": "museum"}}, {"type": "way", "id": 369583670, "nodes": [3733595073, 3733595074, 3733595075, 3733595076, 3733595077, 3733595078, 3733595073], "tags": {"addr:city": "Csehimindszent", "addr:housenumber": "34", "addr:postcode": "9834", "addr:street": "F\u0151 utca", "building": "yes", "name": "Mindszenty J\u00f3zsef sz\u00fcl\u0151h\u00e1za", "tourism": "museum"}}, {"type": "way", "id": 377898134, "nodes": [3813058230, 3813058232, 3813058233, 3813058231, 3813058230], "tags": {"building": "yes", "building_1": "residential", "historic": "railway_station", "name": "Vashossz\u00fafalu egykori vas\u00fat\u00e1llom\u00e1sa", "tourism": "museum"}}, {"type": "way", "id": 516973894, "nodes": [5045936237, 5045936236, 5045936235, 5045936234, 5045936237], "tags": {"building": "yes", "museum": "history", "tourism": "museum"}}, {"type": "way", "id": 649335265, "nodes": [6094181272, 6094181273, 6094181274, 6094181275, 6094181272], "tags": {"addr:city": "Hegyh\u00e1tszentp\u00e9ter", "addr:housenumber": "86-88", "addr:postcode": "9821", "addr:street": "B\u00e9ke utca", "building": "house", "contact:facebook": "https://facebook.com/Hegyh%C3%A1tszentp%C3%A9teri-T%C3%A1jh%C3%A1z-269307736812016/", "name": "T\u00e1jh\u00e1z", "tourism": "museum"}}]}