{"version": 0.6, "generator": "Overpass API 0.7.59 e21c39fe", "osm3s": {"timestamp_osm_base": "2023-03-01T08:39:53Z", "copyright": "The data included in this document is from www.openstreetmap.org. The data is made available under ODbL."}, "elements": [{"type": "node", "id": 3020062695, "lat": 46.1280466, "lon": 19.3304242, "tags": {"artwork_type": "statue", "name": "R\u00e1k\u00f3czi", "start_date": "2013", "tourism": "artwork"}}, {"type": "node", "id": 3021275640, "lat": 46.1238644, "lon": 19.3320468, "tags": {"name": "Bar\u00e1ts\u00e1g", "tourism": "artwork"}}, {"type": "node", "id": 3021688176, "lat": 46.1251564, "lon": 19.332474, "tags": {"artist_name": "P\u00e1lfy Guszt\u00e1v", "artwork_type": "bust", "name": "Kossuth Lajos", "start_date": "1986", "tourism": "artwork"}}, {"type": "node", "id": 3021688177, "lat": 46.1247994, "lon": 19.3321238, "tags": {"artist_name": "Humeny\u00e1nszky Jol\u00e1n", "artwork_type": "statue", "name": "Lantos n\u0151", "start_date": "1980", "tourism": "artwork"}}, {"type": "node", "id": 3034913009, "lat": 46.0588969, "lon": 19.2601428, "tags": {"artwork_type": "statue", "name": "Szenth\u00e1roms\u00e1g szobor", "tourism": "artwork"}}, {"type": "node", "id": 3034913909, "lat": 46.1234986, "lon": 19.3211563, "tags": {"artwork_type": "statue", "tourism": "artwork"}}, {"type": "node", "id": 4736481154, "lat": 46.0979328, "lon": 19.7605736, "tags": {"artwork_type": "sculpture", "material": "bronze", "tourism": "artwork"}}, {"type": "node", "id": 4736482999, "lat": 46.098257, "lon": 19.7600861, "tags": {"artwork_type": "statue", "tourism": "artwork"}}, {"type": "node", "id": 4736483004, "lat": 46.0971901, "lon": 19.7602511, "tags": {"artwork_type": "sculpture", "material": "concrete", "tourism": "artwork"}}, {"type": "node", "id": 4737128653, "lat": 46.0976654, "lon": 19.7601631, "tags": {"artwork_type": "sculpture", "tourism": "artwork"}}, {"type": "node", "id": 4737128654, "lat": 46.0976654, "lon": 19.7598761, "tags": {"artwork_type": "sculpture", "tourism": "artwork"}}, {"type": "node", "id": 9079002872, "lat": 46.0591121, "lon": 19.2598599, "tags": {"artwork_type": "szekely_gate", "name": "Sz\u00e9kely kapu", "tourism": "artwork"}}, {"type": "node", "id": 9897626106, "lat": 46.101646, "lon": 19.6616128, "tags": {"artwork_type": "sculpture", "name": "Menorah", "tourism": "artwork"}}]}