{"version": 0.6, "generator": "Overpass API 0.7.59 e21c39fe", "osm3s": {"timestamp_osm_base": "2023-03-01T08:44:58Z", "copyright": "The data included in this document is from www.openstreetmap.org. The data is made available under ODbL."}, "elements": [{"type": "node", "id": 1383440607, "lat": 48.4005433, "lon": 21.6567092, "tags": {"artwork_type": "statue", "name": "Pr\u00f3f\u00e9ta", "source": "S\u00e1toralja\u00fajhely ortofot\u00f3 2020", "tourism": "artwork"}}, {"type": "node", "id": 1383440611, "lat": 48.4005183, "lon": 21.6708683, "tags": {"tourism": "artwork"}}, {"type": "node", "id": 1386640876, "lat": 48.328137, "lon": 21.8273248, "tags": {"artwork_type": "sculpture", "source": "survey", "tourism": "artwork"}}, {"type": "node", "id": 3456413840, "lat": 48.3975283, "lon": 21.6558227, "tags": {"alt_name": "Puck", "artwork_type": "statue", "description": "http://szoborlap.hu/8671_botos_fiu_satoraljaujhely_bolgar_judit_1969.html", "name": "Botos fi\u00fa", "source": "turistautak.hu", "source:date": "2012-09-17", "tourism": "artwork", "url": "http://turistautak.hu/poi.php?id=144663"}}, {"type": "node", "id": 3456414099, "lat": 48.39889, "lon": 21.65622, "tags": {"description": "http://szoborlap.hu/8651_jokai_mor_satoraljaujhely_ligeti_erika_1988.html", "memorial": "statue", "name": "J\u00f3kai M\u00f3r", "source": "turistautak.hu", "source:date": "2012-09-17", "tourism": "artwork", "url": "http://turistautak.hu/poi.php?id=144666"}}, {"type": "node", "id": 3456414232, "lat": 48.3942957, "lon": 21.655625, "tags": {"artist_name": "Ker\u00e9nyi Jen\u0151", "artwork_type": "statue", "inscription": "A magyar szabads\u00e1gharc sz\u00e1zadik esztendej\u00e9ben emelte a magyar n\u00e9p azok eml\u00e9k\u00e9re, akik a n\u00e9pek szabads\u00e1g\u00e1\u00e9rt a fasiszta rombol\u00e1s \u00e9s a barb\u00e1rs\u00e1g elleni harcban 1944. m\u00e1rcius 22-\u00e9n \u00e9let\u00fcket \u00e1ldozt\u00e1k.", "memorial": "statue", "name": "Sassal viaskod\u00f3 fi\u00fa", "source": "turistautak.hu", "source:date": "2011-07-13", "start_date": "1948", "tourism": "artwork", "url": "http://szoborlap.hu/2324_sassal_viaskodo_ifju_partizanemlekmu_satoraljaujhely_kerenyi_jeno_1948.html"}}, {"type": "node", "id": 3471770350, "lat": 48.219783, "lon": 22.0825, "tags": {"name": "Sz\u00e9kelykapu", "source": "turistautak.hu", "source:date": "2015-01-24", "tourism": "artwork", "url": "http://turistautak.hu/poi.php?id=176145", "wheelchair": "yes"}}, {"type": "node", "id": 3471770511, "lat": 48.226917, "lon": 22.078467, "tags": {"artist_name": "Hlav\u00e1cs Viktor", "artwork_type": "statue", "name": "Lev\u00e9l V\u00e1rday Alad\u00e1rt\u00f3l", "tourism": "artwork", "url": "http://turistautak.hu/poi.php?id=176129", "wheelchair": "yes"}}, {"type": "node", "id": 4580073173, "lat": 48.3363052, "lon": 22.1202869, "tags": {"artwork_type": "statue", "name": "Millenniumi-eml\u00e9km\u0171", "tourism": "artwork"}}, {"type": "node", "id": 7924201027, "lat": 48.2304426, "lon": 22.0714334, "tags": {"artwork_type": "sculpture", "name": "Szeretet", "tourism": "artwork"}}, {"type": "node", "id": 8501309863, "lat": 48.2237351, "lon": 22.0820837, "tags": {"artist_name": "Szab\u00f3 Tam\u00e1s", "artwork_type": "statue", "material": "bronze", "name": "\u00c9rint\u00e9s", "start_date": "1988-06-09", "tourism": "artwork"}}, {"type": "node", "id": 8975093733, "lat": 48.3587052, "lon": 21.8063924, "tags": {"artwork_type": "statue", "tourism": "artwork"}}, {"type": "node", "id": 9208592594, "lat": 48.226213, "lon": 22.0788556, "tags": {"artwork_type": "sculpture", "tourism": "artwork"}}, {"type": "node", "id": 9208592604, "lat": 48.2239507, "lon": 22.081688, "tags": {"artwork_type": "statue", "name": "V\u00e1ri Emil", "tourism": "artwork"}}, {"type": "node", "id": 9759904177, "lat": 48.3585535, "lon": 21.806305, "tags": {"artwork_type": "stone", "tourism": "artwork"}}, {"type": "node", "id": 9952132337, "lat": 48.3327312, "lon": 21.7299339}, {"type": "node", "id": 9952132338, "lat": 48.3326248, "lon": 21.7299744}, {"type": "node", "id": 9952132339, "lat": 48.3326589, "lon": 21.7301769}, {"type": "node", "id": 9952132340, "lat": 48.3327653, "lon": 21.7301363}, {"type": "node", "id": 10302182453, "lat": 48.4249493, "lon": 21.9784958, "tags": {"artwork_type": "statue", "tourism": "artwork"}}, {"type": "node", "id": 10302182454, "lat": 48.424954, "lon": 21.9785256, "tags": {"artwork_type": "statue", "tourism": "artwork"}}, {"type": "node", "id": 10302182455, "lat": 48.4249589, "lon": 21.9785538, "tags": {"artwork_type": "statue", "tourism": "artwork"}}, {"type": "way", "id": 1086139368, "nodes": [9952132337, 9952132338, 9952132339, 9952132340, 9952132337], "tags": {"area": "yes", "artwork_type": "installation", "image": "https://lh3.ggpht.com/p/AF1QipNNMA6tb5wINCyuoJZu-0aUoXWHAxVKYemtcfLq=s1024", "name": "Bow and arrow stella", "tourism": "artwork"}}]}