{"version": 0.6, "generator": "Overpass API 0.7.59 e21c39fe", "osm3s": {"timestamp_osm_base": "2023-03-01T09:24:30Z", "copyright": "The data included in this document is from www.openstreetmap.org. The data is made available under ODbL."}, "elements": [{"type": "node", "id": 1382079321, "lat": 47.667214, "lon": 17.1338497, "tags": {"building": "yes", "name": "Esterh\u00e1zy Mad\u00e1rv\u00e1rta", "operator": "Fert\u0151-Hans\u00e1g Nemzeti Park", "tourism": "museum"}}, {"type": "node", "id": 1437728710, "lat": 47.6098869, "lon": 16.7061409}, {"type": "node", "id": 1437728736, "lat": 47.6100464, "lon": 16.7054232}, {"type": "node", "id": 1437728767, "lat": 47.6102235, "lon": 16.7055334}, {"type": "node", "id": 1437728772, "lat": 47.6102285, "lon": 16.7055651}, {"type": "node", "id": 1437728774, "lat": 47.6102392, "lon": 16.7055986}, {"type": "node", "id": 1437728778, "lat": 47.6102517, "lon": 16.7056347}, {"type": "node", "id": 1437728781, "lat": 47.6102658, "lon": 16.7056607}, {"type": "node", "id": 1437728789, "lat": 47.6102839, "lon": 16.705685}, {"type": "node", "id": 1437728796, "lat": 47.6103071, "lon": 16.7057059}, {"type": "node", "id": 1437728797, "lat": 47.6103121, "lon": 16.7057102}, {"type": "node", "id": 1437728803, "lat": 47.6103517, "lon": 16.7057437}, {"type": "node", "id": 1437728848, "lat": 47.6104933, "lon": 16.706413}, {"type": "node", "id": 1437728871, "lat": 47.6106157, "lon": 16.705917}, {"type": "node", "id": 1437728874, "lat": 47.6105244, "lon": 16.7056265}, {"type": "node", "id": 1437728877, "lat": 47.6105526, "lon": 16.705524}, {"type": "node", "id": 1437728892, "lat": 47.6109369, "lon": 16.7058764}, {"type": "node", "id": 1437728893, "lat": 47.6109634, "lon": 16.7057791}, {"type": "node", "id": 1800727216, "lat": 47.4535861, "lon": 17.1178327, "tags": {"name": "M\u00fazeum", "opening_hours": "Fr-Sa 14:00-17:00", "tourism": "museum"}}, {"type": "node", "id": 2159519716, "lat": 47.35385, "lon": 17.0627819, "tags": {"int_name": "We\u00f6res S\u00e1ndor Memorialmuseum", "name": "We\u00f6res S\u00e1ndor \u00e9s K\u00e1rolyi Amy Eml\u00e9km\u00fazeum", "phone": "+36 30 609 0389", "tourism": "museum"}}, {"type": "node", "id": 2397571777, "lat": 47.4009461, "lon": 16.7078361, "tags": {"addr:city": "Csepreg", "addr:country": "HU", "addr:housenumber": "2", "addr:postcode": "9735", "addr:street": "Kossuth Lajos utca", "name": "Csepregi V\u00e1rosi M\u00fazeum, Helyt\u00f6rt\u00e9neti Gy\u0171jtem\u00e9ny", "phone": "+36 94 365 005", "tourism": "museum"}}, {"type": "node", "id": 2822178469, "lat": 47.5931651, "lon": 17.0270766, "tags": {"tourism": "museum"}}, {"type": "node", "id": 2828551500, "lat": 47.6126156, "lon": 17.2500197, "tags": {"addr:city": "Csorna", "addr:housenumber": "34", "addr:postcode": "9300", "addr:street": "Szent Istv\u00e1n t\u00e9r", "name": "Csornai M\u00fazeum", "tourism": "museum"}}, {"type": "node", "id": 2992827889, "lat": 47.6075203, "lon": 16.70529, "tags": {"amenity": "cinema", "tourism": "museum"}}, {"type": "node", "id": 3025481467, "lat": 47.6410983, "lon": 17.0459313}, {"type": "node", "id": 3025481468, "lat": 47.6413489, "lon": 17.045938}, {"type": "node", "id": 3025481469, "lat": 47.6413511, "lon": 17.0457576}, {"type": "node", "id": 3329834483, "lat": 47.3772573, "lon": 17.2860535, "tags": {"name": "Hadt\u00f6rt\u00e9neti \u00e9s helyt\u00f6rt\u00e9neti ki\u00e1ll\u00edt\u00e1s", "tourism": "museum"}}, {"type": "node", "id": 3431780486, "lat": 47.4251908, "lon": 17.2311866}, {"type": "node", "id": 3431780487, "lat": 47.4252018, "lon": 17.2310505}, {"type": "node", "id": 3431780488, "lat": 47.4253539, "lon": 17.2312154}, {"type": "node", "id": 3431780489, "lat": 47.4253649, "lon": 17.2310793}, {"type": "node", "id": 3439644183, "lat": 47.5495273, "lon": 17.0197819, "tags": {"name": "Csipke M\u00fazeum", "source": "turistautak.hu", "source:date": "2013-01-20", "tourism": "museum", "url": "http://turistautak.hu/poi.php?id=123634"}}, {"type": "node", "id": 3466247642, "lat": 47.6157767, "lon": 16.8323009, "tags": {"fixme": "resurvey (source was old)", "name": "Vas\u00fati L\u00e1mpam\u00fazeum", "source": "turistautak.hu", "source:date": "2008-05-14", "tourism": "museum", "url": "http://turistautak.hu/poi.php?id=9407"}}, {"type": "node", "id": 3466253188, "lat": 47.6171791, "lon": 16.839767, "tags": {"addr:city": "Fert\u0151sz\u00e9plak", "addr:housenumber": "31-39", "addr:postcode": "9436", "addr:street": "Nagy Lajos kir\u00e1ly utca", "fixme": "resurvey (source was old)", "museum": "history", "name": "Fert\u0151sz\u00e9plaki T\u00e1jh\u00e1zak", "operator": "SSzC Porp\u00e1czy Alad\u00e1r Technikum \u00e9s Koll\u00e9gium, Fert\u0151d", "operator:type": "government", "source": "turistautak.hu", "source:date": "2008-08-10", "tourism": "museum", "url": "http://turistautak.hu/poi.php?id=8848"}}, {"type": "node", "id": 3466253956, "lat": 47.6167504, "lon": 16.8352663, "tags": {"addr:city": "Fert\u0151sz\u00e9plak", "addr:housenumber": "1", "addr:postcode": "9436", "addr:street": "Ady Endre utca", "museum": "history", "name": "Sz\u00e9chenyi Ferenc sz\u00fcl\u0151h\u00e1za", "source": "turistautak.hu", "source:date": "2010-12-05", "tourism": "museum", "url": "http://turistautak.hu/poi.php?id=8849"}}, {"type": "node", "id": 3885723249, "lat": 47.6096839, "lon": 16.9425091, "tags": {"name": "Kov\u00e1csm\u0171hely m\u00fazeum", "tourism": "museum"}}, {"type": "node", "id": 4179357777, "lat": 47.6672068, "lon": 16.8512561, "tags": {"museum": "nature", "name": "L\u00e1togat\u00f3k\u00f6zpont", "opening_hours": "Tu-Sa 08:00-16:00", "tourism": "museum"}}, {"type": "node", "id": 4179357778, "lat": 47.6667717, "lon": 16.8508851, "tags": {"tourism": "museum"}}, {"type": "node", "id": 4245439253, "lat": 47.6353545, "lon": 16.8658738, "tags": {"addr:city": "Sarr\u00f3d", "addr:country": "HU", "addr:housenumber": "8", "addr:postcode": "9435", "addr:street": "Szeder utca", "building": "yes", "name": "T\u00e1jh\u00e1z", "phone": "+36 99 537 166", "tourism": "museum", "website": "http://www.sarrodtajhaz.hu/"}}, {"type": "node", "id": 4487543690, "lat": 47.6221418, "lon": 16.795354}, {"type": "node", "id": 4487543691, "lat": 47.622149, "lon": 16.7954566}, {"type": "node", "id": 4487543692, "lat": 47.622469, "lon": 16.795303}, {"type": "node", "id": 4487543693, "lat": 47.6224762, "lon": 16.7954057}, {"type": "node", "id": 5051840898, "lat": 47.6106182, "lon": 16.7056832}, {"type": "node", "id": 5787440806, "lat": 47.6412756, "lon": 17.0459528}, {"type": "node", "id": 5787440807, "lat": 47.6411708, "lon": 17.04595}, {"type": "node", "id": 5787440808, "lat": 47.641171, "lon": 17.0459332}, {"type": "node", "id": 5787440809, "lat": 47.6412758, "lon": 17.0459361}, {"type": "node", "id": 5787440810, "lat": 47.6411005, "lon": 17.0457508}, {"type": "way", "id": 130578778, "nodes": [5051840898, 1437728892, 1437728893, 1437728877, 1437728874, 5051840898], "tags": {"building": "yes", "name": "Sz\u00e9chenyi M\u00fazeumvas\u00fat Nagycenk", "tourism": "museum"}}, {"type": "way", "id": 130578779, "nodes": [1437728848, 1437728710, 1437728736, 1437728767, 1437728772, 1437728774, 1437728778, 1437728781, 1437728789, 1437728796, 1437728797, 1437728803, 1437728871, 1437728848], "tags": {"image": "https://image.ibb.co/cD5N27/IMG_1271.jpg", "name": "Sz\u00e9chenyi M\u00fazeumvas\u00fat Nagycenk (Mozdonyok)", "tourism": "museum"}}, {"type": "way", "id": 298653768, "nodes": [5787440810, 3025481467, 5787440808, 5787440807, 5787440806, 5787440809, 3025481468, 3025481469, 5787440810], "tags": {"addr:city": "Kapuv\u00e1r", "addr:housenumber": "1", "addr:postcode": "9339", "addr:street": "R\u00e1k\u00f3czi Ferenc utca", "addr:suburb": "\u00d6nt\u00e9smajor", "building": "yes", "name": "Hans\u00e1g \u00c9l\u0151vil\u00e1ga Ki\u00e1ll\u00edt\u00e1s", "operator": "FHNPI", "tourism": "museum"}}, {"type": "way", "id": 336098058, "nodes": [3431780489, 3431780488, 3431780486, 3431780487, 3431780489], "tags": {"building": "yes", "name": "Horv\u00e1th Eml\u00e9kszoba", "tourism": "museum"}}, {"type": "way", "id": 451950340, "nodes": [4487543692, 4487543693, 4487543691, 4487543690, 4487543692], "tags": {"addr:city": "Hegyk\u0151", "addr:housenumber": "37", "addr:postcode": "9437", "addr:street": "Kossuth Lajos utca", "building": "yes", "name": "Csipkeh\u00e1z", "tourism": "museum"}}]}