{"version": 0.6, "generator": "Overpass API 0.7.59 e21c39fe", "osm3s": {"timestamp_osm_base": "2023-03-01T09:15:23Z", "copyright": "The data included in this document is from www.openstreetmap.org. The data is made available under ODbL."}, "elements": [{"type": "node", "id": 1158867367, "lat": 48.1013424, "lon": 20.7801232, "tags": {"addr:city": "Miskolc", "addr:housenumber": "28", "addr:postcode": "3529", "addr:street": "G\u00f6rgey Art\u00far utca", "addr:suburb": "Avas", "contact:facebook": "https://www.facebook.com/hermuz.miskolc/", "contact:phone": "+36 46 560 170", "fee": "yes", "name": "Herman Ott\u00f3 M\u00fazeum", "opening_hours": "Tu-Su 09:00-16:00", "tourism": "museum", "website": "https://hermuz.hu/"}}, {"type": "node", "id": 1158962818, "lat": 48.0757064, "lon": 20.4081345, "tags": {"name": "Szabadt\u00e9ri Erdei M\u00fazeum", "name:en": "Outdoor Museum of Forestry", "tourism": "museum", "website": "https://www.szilvasvarad.hu/index.php?page=latnivalok_muzeum"}}, {"type": "node", "id": 1330785039, "lat": 48.0977783, "lon": 20.7868844}, {"type": "node", "id": 1330785060, "lat": 48.097612, "lon": 20.7861623}, {"type": "node", "id": 1330785065, "lat": 48.0978091, "lon": 20.7864574}, {"type": "node", "id": 1330785086, "lat": 48.097935, "lon": 20.7864556}, {"type": "node", "id": 1330785095, "lat": 48.097501, "lon": 20.7862535}, {"type": "node", "id": 1330785109, "lat": 48.0974652, "lon": 20.7865969}, {"type": "node", "id": 1330785126, "lat": 48.097329, "lon": 20.786849}, {"type": "node", "id": 1330785128, "lat": 48.0972394, "lon": 20.7866398}, {"type": "node", "id": 1330785129, "lat": 48.0974313, "lon": 20.7865454}, {"type": "node", "id": 1330785134, "lat": 48.0976192, "lon": 20.7865164}, {"type": "node", "id": 1330785144, "lat": 48.0976228, "lon": 20.7866076}, {"type": "node", "id": 1330785207, "lat": 48.0973883, "lon": 20.7864756}, {"type": "node", "id": 1330785216, "lat": 48.0975153, "lon": 20.7863179}, {"type": "node", "id": 1330785227, "lat": 48.0977876, "lon": 20.7861248}, {"type": "node", "id": 1330785241, "lat": 48.0975476, "lon": 20.786452}, {"type": "node", "id": 1330785248, "lat": 48.0972538, "lon": 20.7864949}, {"type": "node", "id": 1330785249, "lat": 48.0977052, "lon": 20.7862804}, {"type": "node", "id": 1330785269, "lat": 48.0978684, "lon": 20.786143}, {"type": "node", "id": 1330785272, "lat": 48.097827, "lon": 20.7861784}, {"type": "node", "id": 1330785285, "lat": 48.0976658, "lon": 20.786275}, {"type": "node", "id": 1330795845, "lat": 48.1013712, "lon": 20.7800002}, {"type": "node", "id": 1330795846, "lat": 48.1015156, "lon": 20.7797651}, {"type": "node", "id": 1330795865, "lat": 48.1013939, "lon": 20.7802627}, {"type": "node", "id": 1330795866, "lat": 48.1015958, "lon": 20.7798755}, {"type": "node", "id": 1330795867, "lat": 48.101103, "lon": 20.7801254}, {"type": "node", "id": 1330795869, "lat": 48.1012675, "lon": 20.7798575}, {"type": "node", "id": 1330795883, "lat": 48.1012957, "lon": 20.7801275}, {"type": "node", "id": 1330795889, "lat": 48.1012081, "lon": 20.7802701}, {"type": "node", "id": 1346676184, "lat": 48.0972712, "lon": 20.6215178}, {"type": "node", "id": 1346676190, "lat": 48.0971576, "lon": 20.6215628}, {"type": "node", "id": 1346676408, "lat": 48.0971776, "lon": 20.6216764}, {"type": "node", "id": 1346676412, "lat": 48.0972913, "lon": 20.6216315}, {"type": "node", "id": 1346690889, "lat": 48.1132028, "lon": 20.5882958}, {"type": "node", "id": 1346690890, "lat": 48.1132909, "lon": 20.5883555}, {"type": "node", "id": 1346690897, "lat": 48.1131609, "lon": 20.5884344}, {"type": "node", "id": 1346690901, "lat": 48.1132489, "lon": 20.5884942}, {"type": "node", "id": 1349489124, "lat": 48.0956016, "lon": 20.7852235}, {"type": "node", "id": 1349489128, "lat": 48.0953815, "lon": 20.7851817}, {"type": "node", "id": 1349489173, "lat": 48.0959975, "lon": 20.7849931}, {"type": "node", "id": 1349489189, "lat": 48.0953795, "lon": 20.7850092}, {"type": "node", "id": 1349489259, "lat": 48.0957538, "lon": 20.7851739}, {"type": "node", "id": 1349489271, "lat": 48.0959995, "lon": 20.7851675}, {"type": "node", "id": 1349489291, "lat": 48.095601, "lon": 20.785176}, {"type": "node", "id": 1349489299, "lat": 48.0957543, "lon": 20.7852196}, {"type": "node", "id": 1349489431, "lat": 48.0956667, "lon": 20.7851962, "tags": {"addr:city": "Miskolc", "addr:housenumber": "28", "addr:postcode": "3529", "addr:street": "G\u00f6rgey Art\u00far utca", "fee": "yes", "tourism": "museum"}}, {"type": "node", "id": 2089215877, "lat": 47.9400512, "lon": 20.5338874, "tags": {"addr:city": "Cser\u00e9pfalu", "addr:housenumber": "106", "addr:postcode": "3413", "addr:street": "Kossuth Lajos utca", "name": "Gazdah\u00e1z \u00e9s Malvinka Eml\u00e9kszoba", "tourism": "museum"}}, {"type": "node", "id": 2089215884, "lat": 47.9556048, "lon": 20.5317735, "tags": {"description": "A m\u00fazeum nyitva tart\u00e1sa: K-V 10-16", "name": "Suba-lyuk M\u00fazeum", "tourism": "museum"}}, {"type": "node", "id": 2101940361, "lat": 47.977902, "lon": 20.5237216}, {"type": "node", "id": 2101940371, "lat": 47.9777119, "lon": 20.523987}, {"type": "node", "id": 2101940374, "lat": 47.9778536, "lon": 20.5236331}, {"type": "node", "id": 2101940377, "lat": 47.9776632, "lon": 20.5238986}, {"type": "node", "id": 2187138437, "lat": 47.8709915, "lon": 20.6059653}, {"type": "node", "id": 2187138448, "lat": 47.8711908, "lon": 20.6060923}, {"type": "node", "id": 2187138451, "lat": 47.8709035, "lon": 20.606114}, {"type": "node", "id": 2187138454, "lat": 47.8710985, "lon": 20.6062504}, {"type": "node", "id": 2187138469, "lat": 47.871055, "lon": 20.6058776}, {"type": "node", "id": 2187138491, "lat": 47.870921, "lon": 20.6061696}, {"type": "node", "id": 2187138495, "lat": 47.8710648, "lon": 20.606114}, {"type": "node", "id": 2187138497, "lat": 47.8710197, "lon": 20.606374}, {"type": "node", "id": 2187138499, "lat": 47.8710324, "lon": 20.6063358}, {"type": "node", "id": 2187138507, "lat": 47.8710411, "lon": 20.605911}, {"type": "node", "id": 2187138512, "lat": 47.8708656, "lon": 20.6062289}, {"type": "node", "id": 2187138522, "lat": 47.8711144, "lon": 20.6060596}, {"type": "node", "id": 2187138524, "lat": 47.8709696, "lon": 20.6060285}, {"type": "node", "id": 2187138530, "lat": 47.8709643, "lon": 20.6064334}, {"type": "node", "id": 2187138540, "lat": 47.8712347, "lon": 20.6060305}, {"type": "node", "id": 2187138542, "lat": 47.871099, "lon": 20.6058158}, {"type": "node", "id": 2187138544, "lat": 47.8709992, "lon": 20.606029, "tags": {"name": "Tardi T\u00e1jh\u00e1zak", "tourism": "museum"}}, {"type": "node", "id": 2346512926, "lat": 48.064212, "lon": 20.6267283}, {"type": "node", "id": 2346512927, "lat": 48.0642713, "lon": 20.6268874}, {"type": "node", "id": 2346512928, "lat": 48.0642015, "lon": 20.6269457}, {"type": "node", "id": 2346512929, "lat": 48.0641422, "lon": 20.6267866}, {"type": "node", "id": 2912311756, "lat": 48.1736985, "lon": 20.5387306, "tags": {"addr:city": "Tardona", "addr:housenumber": "1", "addr:postcode": "3644", "addr:street": "J\u00f3kai M\u00f3r utca", "name": "J\u00f3kai M\u00f3r eml\u00e9kszoba \u00e9s t\u00e1jh\u00e1z", "tourism": "museum"}}, {"type": "node", "id": 3437142877, "lat": 48.106036, "lon": 20.784014, "tags": {"addr:city": "Miskolc", "addr:housenumber": "7", "addr:postcode": "3525", "addr:street": "De\u00e1k Ferenc t\u00e9r", "name": "Magyar Ortodox Egyh\u00e1zi M\u00fazeum", "name:en": "Hungarian Orthodox Church Museum", "name:ro": "Muzeul Bisericii Ortodoxe Maghiare", "source": "turistautak.hu", "source:date": "2011-07-04", "tourism": "museum", "url": "http://turistautak.hu/poi.php?id=65597"}}, {"type": "node", "id": 3437148076, "lat": 48.113417, "lon": 20.662162, "tags": {"contact:phone": "+36 46 530 890", "name": "Di\u00f3sgy\u0151ri Pap\u00edripari M\u00fazeum", "source": "turistautak.hu", "source:date": "2013-12-02", "tourism": "museum", "url": "http://turistautak.hu/poi.php?id=12823"}}, {"type": "node", "id": 3437148728, "lat": 48.105822, "lon": 20.783592, "tags": {"name": "Feledy Gyula \u00e1lland\u00f3 ki\u00e1ll\u00edt\u00e1sa", "source": "turistautak.hu", "source:date": "2011-07-04", "tourism": "museum", "url": "http://turistautak.hu/poi.php?id=66736"}}, {"type": "node", "id": 3437149557, "lat": 48.1069661, "lon": 20.6276604, "tags": {"addr:city": "Miskolc", "addr:housenumber": "22", "addr:postcode": "3517", "addr:street": "Palota utca", "addr:suburb": "Fels\u0151h\u00e1mor", "contact:mobile": "+36 30/ 836 47 10", "contact:phone": "+36 46 370 864", "description": "Koh\u00e1szati M\u00fazeum \u00fajmassai ki\u00e1ll\u00edt\u00f3helye", "name": "Koh\u00e1szati M\u00fazeum", "official_name": "K\u00f6zponti Koh\u00e1szati M\u00fazeum (Miskolc-H\u00e1mor)", "opening_hours": "Th-Sa 10:00-16:00", "operator": "Magyar M\u0171szaki \u00e9s K\u00f6zleked\u00e9si M\u00fazeum Koh\u00e1szati M\u00fazeuma", "source": "turistautak.hu", "source:date": "2010-03-26", "tourism": "museum", "url": "http://turistautak.hu/poi.php?id=501", "website": "https://www.mmkm.hu/hu/kiallitasaink/a-kohaszati-muzeum-allando-kiallitasa-ujmassan", "wikidata": "Q1115042", "wikipedia": "hu:Koh\u00e1szati M\u00fazeum"}}, {"type": "node", "id": 3437149836, "lat": 48.1142396, "lon": 20.5881671, "tags": {"alt_name": "m\u0171szaki skanzen", "name": "Szabadt\u00e9ri koh\u00e1szatig\u00e9p-ki\u00e1ll\u00edt\u00e1s", "source": "turistautak.hu", "source:date": "2013-12-02", "tourism": "museum", "url": "http://turistautak.hu/poi.php?id=95672"}}, {"type": "node", "id": 3437751766, "lat": 47.942822, "lon": 20.810705, "tags": {"name": "Em\u0151di t\u00e1jh\u00e1zak", "source": "turistautak.hu", "source:date": "2011-07-04", "tourism": "museum", "url": "http://turistautak.hu/poi.php?id=78126"}}, {"type": "node", "id": 3437751778, "lat": 48.163033, "lon": 20.62175, "tags": {"name": "Falum\u00fazeum", "source": "turistautak.hu", "source:date": "2012-09-06", "tourism": "museum", "url": "http://turistautak.hu/poi.php?id=144295"}}, {"type": "node", "id": 3437753011, "lat": 48.0400797, "lon": 20.5643572, "tags": {"name": "Gyerty\u00e1nv\u00f6lgyi \u00fcveghuta", "source": "survey", "survey:date": "2018-05-23", "tourism": "museum", "url": "http://turistautak.hu/poi.php?id=8481"}}, {"type": "node", "id": 3437754928, "lat": 47.988319, "lon": 20.777703, "tags": {"name": "T\u00e1jh\u00e1z", "source": "turistautak.hu", "source:date": "2011-07-04", "tourism": "museum", "url": "http://turistautak.hu/poi.php?id=100295"}}, {"type": "node", "id": 3437754929, "lat": 48.003433, "lon": 20.921133, "tags": {"name": "T\u00e1jh\u00e1z", "source": "turistautak.hu", "source:date": "2010-07-16", "tourism": "museum", "url": "http://turistautak.hu/poi.php?id=465"}}, {"type": "node", "id": 3445460115, "lat": 47.894583, "lon": 20.4945, "tags": {"contact:phone": "+36 30 8576184", "description": "R\u00f3zsi Mikl\u00f3st kell keresni", "name": "Szomolyai t\u00e1jh\u00e1z", "source": "survey", "source:date": "2018-02-17", "tourism": "museum", "url": "http://turistautak.hu/poi.php?id=102332", "website": "http://www.szomolya.eu/tajhaz/"}}, {"type": "node", "id": 3445460183, "lat": 47.89121, "lon": 20.49511, "tags": {"name": "Fazekasm\u0171hely", "source": "turistautak.hu", "source:date": "2014-01-21", "tourism": "museum", "url": "http://turistautak.hu/poi.php?id=165111"}}, {"type": "node", "id": 3445462900, "lat": 47.955612, "lon": 20.531433, "tags": {"description": "A B\u00fckk d\u00e9li kapuja (l\u00e1togat\u00f3k\u00f6zpont)", "name": "L\u00e1togat\u00f3 k\u00f6zpont (B\u00fckk D\u00e9li kapu)", "source": "turistautak.hu", "source:date": "2013-12-02", "tourism": "museum", "url": "http://turistautak.hu/poi.php?id=163304"}}, {"type": "node", "id": 3445463370, "lat": 47.9027625, "lon": 20.5271708, "tags": {"description": "Bejelentkez\u00e9s: 30/3510982 49/534011", "name": "T\u00e1jh\u00e1z", "source": "turistautak.hu", "source:date": "2014-01-21", "tourism": "museum", "url": "http://turistautak.hu/poi.php?id=165108"}}, {"type": "node", "id": 3445463496, "lat": 47.90702, "lon": 20.533053, "tags": {"fixme": "resurvey (source was old)", "name": "Szabadt\u00e9ri Lepkepark", "source": "turistautak.hu", "source:date": "2008-06-07", "tourism": "museum", "url": "http://turistautak.hu/poi.php?id=9729"}}, {"type": "node", "id": 3447338160, "lat": 48.08516, "lon": 20.4063167, "tags": {"name": "Zilahy Alad\u00e1r Erd\u00e9szeti M\u00fazeum", "name:en": "Museum of Forestry", "opening_hours": "Mo-Su 08:30-14:00", "source": "survey", "source:date": "2015-07-15", "tourism": "museum", "website": "http://www.szalajka-volgy.hu/latnivalok/zilahy-aladar-erdeszeti-muzeum"}}, {"type": "node", "id": 3447340252, "lat": 48.1038763, "lon": 20.39323, "tags": {"addr:city": "Szilv\u00e1sv\u00e1rad", "addr:housenumber": "8", "addr:postcode": "3348", "addr:street": "Park utca", "contact:phone": "+36 36 564 400", "name": "Lovas M\u00fazeum", "name:en": "Lipizzaner historical museum", "official_name": "Lipicai L\u00f3t\u00f6rt\u00e9neti Ki\u00e1ll\u00edt\u00e1s \u00e9s T\u00f6rzsm\u00e9n Ist\u00e1ll\u00f3", "opening_hours": "Mo, Tu, Th-Su 09:00-12:00, 13:00-17:00", "operator": "\u00c1llami M\u00e9nesgazdas\u00e1g Szilv\u00e1sv\u00e1rad", "tourism": "museum", "website": "https://www.szilvasvarad.hu/lipicai-menes/lipicai-lotorteneti-kiallitas"}}, {"type": "node", "id": 3481282259, "lat": 48.1209581, "lon": 20.9144252, "tags": {"tourism": "museum"}}, {"type": "node", "id": 3490719853, "lat": 47.8076256, "lon": 20.5723798, "tags": {"craft": "pottery", "description": "Feh\u00e9r Tibor fazekasm\u0171helye.", "name": "Feh\u00e9r Tibor fazekasm\u0171helye", "source": "turistautak.hu", "source:date": "2008-06-11", "tourism": "museum", "url": "http://turistautak.hu/poi.php?id=8721"}}, {"type": "node", "id": 3490719858, "lat": 47.811309, "lon": 20.572319, "tags": {"name": "Maty\u00f3 M\u00fazeum", "source": "turistautak.hu", "source:date": "2011-10-26", "tourism": "museum", "url": "http://turistautak.hu/poi.php?id=126814"}}, {"type": "node", "id": 3490719859, "lat": 47.806017, "lon": 20.573617, "tags": {"contact:phone": "+36 49 312 820;+36 49 313 575", "name": "Mez\u0151gazdas\u00e1gi G\u00e9pm\u00fazeum", "source": "turistautak.hu", "source:date": "2008-06-11", "tourism": "museum", "url": "http://turistautak.hu/poi.php?id=8722"}}, {"type": "node", "id": 3601454358, "lat": 48.1781618, "lon": 20.4847987, "tags": {"addr:city": "D\u00e9destapolcs\u00e1ny", "addr:housenumber": "14", "addr:postcode": "3643", "addr:street": "Pet\u0151fi S\u00e1ndor utca", "name": "Cser\u00e9ped\u00e9ny-gy\u0171jtem\u00e9ny", "operator": "Dr. Kiss Mikl\u00f3s", "phone": "+36 48 340 185", "tourism": "museum"}}, {"type": "node", "id": 3699012764, "lat": 47.9724813, "lon": 20.415155}, {"type": "node", "id": 3699012765, "lat": 47.972438, "lon": 20.4150886}, {"type": "node", "id": 3699012766, "lat": 47.9723045, "lon": 20.4152828}, {"type": "node", "id": 3699012767, "lat": 47.9723467, "lon": 20.4153474}, {"type": "node", "id": 3699012768, "lat": 47.9723039, "lon": 20.4154097}, {"type": "node", "id": 3699012769, "lat": 47.9723436, "lon": 20.4154707}, {"type": "node", "id": 3699012770, "lat": 47.9724324, "lon": 20.4153415}, {"type": "node", "id": 3699012771, "lat": 47.9723938, "lon": 20.4152823}, {"type": "node", "id": 3753152363, "lat": 47.8119868, "lon": 20.4074069, "tags": {"addr:city": "Makl\u00e1r", "addr:housenumber": "19", "addr:postcode": "3397", "addr:street": "Dob\u00f3 Istv\u00e1n utca", "name": "Tenger\u00e9sz M\u00fazeum", "tourism": "museum"}}, {"type": "node", "id": 3788937664, "lat": 47.9315247, "lon": 20.558984, "tags": {"name": "Barlanglak\u00e1sos t\u00e1jh\u00e1z", "tourism": "museum"}}, {"type": "node", "id": 4409906659, "lat": 47.9488278, "lon": 20.6624037}, {"type": "node", "id": 4409906660, "lat": 47.9488783, "lon": 20.6623741}, {"type": "node", "id": 4409906661, "lat": 47.9488848, "lon": 20.6626201}, {"type": "node", "id": 4409906663, "lat": 47.9489352, "lon": 20.6625905}, {"type": "node", "id": 4642164595, "lat": 48.1680387, "lon": 20.4293783, "tags": {"name": "Szeleczky Zita eml\u00e9kh\u00e1z", "tourism": "museum"}}, {"type": "node", "id": 4642170278, "lat": 48.1700772, "lon": 20.4273185, "tags": {"name": "Hagyom\u00e1nyok H\u00e1za", "tourism": "museum"}}, {"type": "node", "id": 4846989491, "lat": 47.9580121, "lon": 20.6118074, "tags": {"name": "szabadt\u00e9ri m\u00fazeum", "tourism": "museum"}}, {"type": "node", "id": 4850026027, "lat": 47.9703455, "lon": 20.9847568}, {"type": "node", "id": 4850026028, "lat": 47.9703346, "lon": 20.9848899}, {"type": "node", "id": 4850026029, "lat": 47.9700813, "lon": 20.9848269}, {"type": "node", "id": 4850026030, "lat": 47.9700907, "lon": 20.9846915}, {"type": "node", "id": 4850026237, "lat": 48.0028334, "lon": 20.9470801}, {"type": "node", "id": 4850026238, "lat": 48.0027448, "lon": 20.9471171}, {"type": "node", "id": 4850026239, "lat": 48.0028025, "lon": 20.9473297}, {"type": "node", "id": 4850026240, "lat": 48.0028726, "lon": 20.9472989}, {"type": "node", "id": 4894318998, "lat": 48.0799977, "lon": 20.7653898, "tags": {"tourism": "museum"}}, {"type": "node", "id": 4894416323, "lat": 48.0959055, "lon": 20.7854173}, {"type": "node", "id": 4894416324, "lat": 48.0958533, "lon": 20.7854186}, {"type": "node", "id": 4894416325, "lat": 48.095854, "lon": 20.7854828}, {"type": "node", "id": 4894416326, "lat": 48.0957822, "lon": 20.7854847}, {"type": "node", "id": 4894416327, "lat": 48.0957825, "lon": 20.7855093}, {"type": "node", "id": 4894416328, "lat": 48.0954971, "lon": 20.7855167}, {"type": "node", "id": 4894416329, "lat": 48.0954947, "lon": 20.7853051}, {"type": "node", "id": 4894416330, "lat": 48.0956025, "lon": 20.7853023}, {"type": "node", "id": 4894416332, "lat": 48.0957552, "lon": 20.7852907}, {"type": "node", "id": 4894416333, "lat": 48.095904, "lon": 20.7852868}, {"type": "node", "id": 4936679449, "lat": 47.808594, "lon": 20.5713006}, {"type": "node", "id": 4936679450, "lat": 47.8086281, "lon": 20.5712486}, {"type": "node", "id": 4936679451, "lat": 47.8085517, "lon": 20.5711377}, {"type": "node", "id": 4936679452, "lat": 47.8085177, "lon": 20.5711896}, {"type": "node", "id": 4936679470, "lat": 47.8080571, "lon": 20.5712145}, {"type": "node", "id": 4936679471, "lat": 47.8080074, "lon": 20.5712615}, {"type": "node", "id": 4936679472, "lat": 47.8080938, "lon": 20.5714638}, {"type": "node", "id": 4936679473, "lat": 47.8081435, "lon": 20.5714168}, {"type": "node", "id": 4936679474, "lat": 47.8077886, "lon": 20.5714725}, {"type": "node", "id": 4936679475, "lat": 47.8077344, "lon": 20.5715327}, {"type": "node", "id": 4936679476, "lat": 47.8078646, "lon": 20.5717932}, {"type": "node", "id": 4936679477, "lat": 47.8079189, "lon": 20.571733}, {"type": "node", "id": 4936679479, "lat": 47.8082498, "lon": 20.5706096}, {"type": "node", "id": 4936679480, "lat": 47.8081161, "lon": 20.5707472}, {"type": "node", "id": 4936679481, "lat": 47.8081671, "lon": 20.5708571}, {"type": "node", "id": 4936679482, "lat": 47.8082196, "lon": 20.5708031}, {"type": "node", "id": 4936679483, "lat": 47.8083506, "lon": 20.5710853}, {"type": "node", "id": 4936679484, "lat": 47.8084318, "lon": 20.5710017}, {"type": "node", "id": 4936679490, "lat": 47.8088412, "lon": 20.5711232}, {"type": "node", "id": 4936679491, "lat": 47.8088839, "lon": 20.5710565}, {"type": "node", "id": 4936679492, "lat": 47.8087062, "lon": 20.5708048}, {"type": "node", "id": 4936679493, "lat": 47.8086636, "lon": 20.5708715}, {"type": "node", "id": 4953795224, "lat": 48.0809793, "lon": 20.7788137, "tags": {"tourism": "museum"}}, {"type": "node", "id": 5471202022, "lat": 47.9317154, "lon": 20.4764763, "tags": {"fee": "yes", "level": "-1", "name": "Magt\u00e1r-\u00c9rt\u00e9kt\u00e1r", "opening_hours": "We-Sa 10:00-17:00; Su 10:00-15:00", "tourism": "museum"}}, {"type": "node", "id": 5645486628, "lat": 48.1035643, "lon": 20.6223679, "tags": {"fee": "no", "name": "Kisvas\u00fat ki\u00e1ll\u00edt\u00e1s", "tourism": "museum"}}, {"type": "node", "id": 6562377259, "lat": 48.1029555, "lon": 20.7838241, "tags": {"addr:city": "Miskolc", "addr:housenumber": "3", "addr:postcode": "3525", "addr:street": "D\u00e9ryn\u00e9 utca", "name": "Sz\u00ednh\u00e1zt\u00f6rt\u00e9neti \u00e9s Sz\u00edn\u00e9szm\u00fazeum", "tourism": "museum", "wikidata": "Q1303313", "wikipedia": "hu:Sz\u00ednh\u00e1zt\u00f6rt\u00e9neti \u00e9s Sz\u00edn\u00e9szm\u00fazeum"}}, {"type": "node", "id": 7792312997, "lat": 48.0882515, "lon": 20.4061924, "tags": {"tourism": "museum"}}, {"type": "node", "id": 7804448252, "lat": 48.1384859, "lon": 20.4230446, "tags": {"contact:email": "info@militarymotor.hu", "contact:facebook": "https://facebook.com/Military-Motor-Museum-2438536366366138/", "contact:phone": "+36 30 593 4300", "contact:website": "https://militarymotor.hu/", "name": "Katonaimotor-m\u00fazeum", "name:en": "Military Motor Museum", "opening_hours": "Th-Su 10:00-17:30", "tourism": "museum"}}, {"type": "node", "id": 8042885651, "lat": 47.9812596, "lon": 20.4343115, "tags": {"addr:city": "Fels\u0151t\u00e1rk\u00e1ny", "addr:housenumber": "34/1", "addr:postcode": "3324", "addr:street": "Ifj\u00fas\u00e1g utca", "building": "house", "contact:website": "https://www.bnpi.hu/hu/reszletek/nyugati-kapu-latogatokozpont", "name": "BNPI Nyugati Kapu Oktat\u00f3- \u00e9s L\u00e1togat\u00f3k\u00f6zpont", "operator": "BNPI", "tourism": "museum", "url": "http://turistautak.hu/poi.php?id=23244"}}, {"type": "node", "id": 8094469563, "lat": 48.113608, "lon": 20.5882401, "tags": {"addr:city": "\u00d3massa", "addr:country": "HU", "addr:postcode": "3517", "addr:street": "\u00d3massa utca", "contact:mobile": "+36 30/ 836 47 10", "contact:phone": "+36 46 370 864", "name": "Massa M\u00fazeum", "official_name": "Magyar M\u0171szaki \u00e9s K\u00f6zleked\u00e9si M\u00fazeum Massa M\u00fazeuma", "opening_hours": "Th-Sa 10:00-16:00", "operator": "Magyar M\u0171szaki \u00e9s K\u00f6zleked\u00e9si M\u00fazeum", "tourism": "museum", "wikidata": "Q1166381", "wikipedia": "hu:Massa M\u00fazeum"}}, {"type": "node", "id": 8792393298, "lat": 48.0978083, "lon": 20.786833}, {"type": "node", "id": 8792393299, "lat": 48.0978114, "lon": 20.7869227}, {"type": "node", "id": 8792393300, "lat": 48.0978359, "lon": 20.7868842}, {"type": "node", "id": 8792393301, "lat": 48.0979261, "lon": 20.7862905}, {"type": "node", "id": 8792393302, "lat": 48.0979009, "lon": 20.7862126}, {"type": "node", "id": 8792393303, "lat": 48.0979394, "lon": 20.7863806}, {"type": "node", "id": 8792393304, "lat": 48.0979418, "lon": 20.7864206}, {"type": "node", "id": 8792393305, "lat": 48.097972, "lon": 20.7864574}, {"type": "node", "id": 8792393306, "lat": 48.0979535, "lon": 20.78648}, {"type": "node", "id": 8810596614, "lat": 48.1043004, "lon": 20.7822396, "tags": {"fee": "yes", "name": "Herman Ott\u00f3 M\u00fazeum \u00e1sv\u00e1nyt\u00e1ra", "tourism": "museum"}}, {"type": "node", "id": 9690307606, "lat": 47.8609141, "lon": 20.4746978}, {"type": "node", "id": 9690307607, "lat": 47.8610499, "lon": 20.4750123}, {"type": "node", "id": 9690307608, "lat": 47.8611048, "lon": 20.4749597}, {"type": "node", "id": 9690307609, "lat": 47.8609689, "lon": 20.4746452}, {"type": "node", "id": 10204740644, "lat": 48.1014822, "lon": 20.7800603}, {"type": "node", "id": 10204740645, "lat": 48.1015017, "lon": 20.7800871}, {"type": "way", "id": 118312057, "nodes": [1330785249, 1330785227, 1330785272, 1330785269, 8792393302, 8792393301, 8792393303, 8792393304, 8792393305, 8792393306, 1330785086, 1330785065, 8792393298, 8792393300, 8792393299, 1330785039, 1330785126, 1330785128, 1330785248, 1330785207, 1330785129, 1330785109, 1330785144, 1330785134, 1330785241, 1330785216, 1330785095, 1330785060, 1330785285, 1330785249], "tags": {"building": "public", "name": "Tudom\u00e1ny \u00e9s Technika H\u00e1za", "tourism": "museum"}}, {"type": "way", "id": 118316167, "nodes": [1330795846, 1330795866, 10204740644, 10204740645, 1330795865, 1330795883, 1330795889, 1330795867, 1330795869, 1330795845, 1330795846], "tags": {"building": "yes", "tourism": "museum"}}, {"type": "way", "id": 120013433, "nodes": [1346676184, 1346676412, 1346676408, 1346676190, 1346676184], "tags": {"building": "yes", "contact:phone": "+36 46 370 703", "name": "Herman Ott\u00f3 Eml\u00e9kh\u00e1z", "tourism": "museum", "url": "http://turistautak.hu/poi.php?id=47289"}}, {"type": "way", "id": 120016691, "nodes": [1346690890, 1346690901, 1346690897, 1346690889, 1346690890], "tags": {"addr:city": "\u00d3massa", "addr:country": "HU", "addr:postcode": "3517", "addr:street": "\u00d3massa utca", "architect": "Fazola Henrik", "name": "\u0150skoh\u00f3", "name:en": "Ancient Blast Furnace, Massa Museum", "official_name": "\u00dajmassai \u0151skoh\u00f3", "start_date": "1813", "tourism": "museum", "website": "https://www.mmkm.hu/hu/kiallitasaink/a-kohaszati-muzeum-allando-kiallitasa-ujmassan", "wikidata": "Q1472806", "wikipedia": "hu:\u00dajmassai \u0151skoh\u00f3"}}, {"type": "way", "id": 120333803, "nodes": [1349489189, 1349489128, 1349489291, 1349489124, 1349489299, 1349489259, 1349489271, 1349489173, 1349489189], "tags": {"building": "public", "contact:website": "http://www.hermuz.hu/", "fee": "yes", "name": "Herman Ott\u00f3 M\u00fazeum", "tourism": "museum", "wikidata": "Q1035562", "wikipedia": "hu:Herman Ott\u00f3 M\u00fazeum"}}, {"type": "way", "id": 200197185, "nodes": [2101940361, 2101940371, 2101940377, 2101940374, 2101940361], "tags": {"building": "yes", "name": "T\u00e1jh\u00e1z", "tourism": "museum"}}, {"type": "way", "id": 208420114, "nodes": [2187138497, 2187138491, 2187138512, 2187138530, 2187138497], "tags": {"tourism": "museum"}}, {"type": "way", "id": 208420115, "nodes": [2187138540, 2187138542, 2187138469, 2187138448, 2187138540], "tags": {"tourism": "museum"}}, {"type": "way", "id": 208420117, "nodes": [2187138522, 2187138507, 2187138437, 2187138495, 2187138522], "tags": {"tourism": "museum"}}, {"type": "way", "id": 208420119, "nodes": [2187138454, 2187138524, 2187138451, 2187138499, 2187138454], "tags": {"tourism": "museum"}}, {"type": "way", "id": 225831276, "nodes": [2346512926, 2346512927, 2346512928, 2346512929, 2346512926], "tags": {"building": "yes", "name": "B\u00fckki \u00dcveghut\u00e1k Ipart\u00f6rt\u00e9neti M\u00fazeuma", "tourism": "museum"}}, {"type": "way", "id": 365896354, "nodes": [3699012764, 3699012765, 3699012766, 3699012767, 3699012768, 3699012769, 3699012770, 3699012771, 3699012764], "tags": {"addr:city": "Fels\u0151t\u00e1rk\u00e1ny", "addr:housenumber": "198", "addr:postcode": "3324", "addr:street": "F\u0151 \u00fat", "building": "residential", "description": "Sz\u00e9pen fel\u00faj\u00edtott r\u00e9gi h\u00e1z.", "name": "T\u00e1jh\u00e1z", "source": "turistautak.hu", "source:date": "2013-01-09", "tourism": "museum", "url": "http://turistautak.hu/poi.php?id=149551"}}, {"type": "way", "id": 443405185, "nodes": [4409906659, 4409906660, 4409906663, 4409906661, 4409906659], "tags": {"building": "yes", "name": "V\u00edzf\u0151 tan\u00f6sv\u00e9ny 02 (G\u00e1rdonyi G\u00e9za-eml\u00e9kh\u00e1z)", "tourism": "museum"}}, {"type": "way", "id": 493060064, "nodes": [4850026027, 4850026028, 4850026029, 4850026030, 4850026027], "tags": {"addr:city": "Girincs", "addr:housenumber": "63", "addr:postcode": "3578", "addr:street": "Kossuth Lajos utca", "building": "yes", "name": "Girincsi T\u00e1jh\u00e1z", "operator": "Girincs K\u00f6zs\u00e9g \u00d6nkorm\u00e1nyzata", "tourism": "museum"}}, {"type": "way", "id": 493060128, "nodes": [4850026237, 4850026238, 4850026239, 4850026240, 4850026237], "tags": {"addr:city": "Saj\u00f3h\u00eddv\u00e9g", "addr:housenumber": "27", "addr:postcode": "3576", "addr:street": "R\u00e1k\u00f3czi Ferenc utca", "building": "yes", "name": "Helyt\u00f6rt\u00e9neti Gy\u0171jtem\u00e9ny", "operator": "Saj\u00f3h\u00eddv\u00e9gi Polg\u00e1rmesteri Hivatal", "tourism": "museum"}}, {"type": "way", "id": 497946041, "nodes": [4894416323, 4894416324, 4894416325, 4894416326, 4894416327, 4894416328, 4894416329, 4894416330, 1349489124, 1349489299, 4894416332, 4894416333, 4894416323], "tags": {"building": "yes", "fee": "yes", "free_refill": "yes", "name": "Herman Ott\u00f3 M\u00fazeum - Pannon-tenger Ki\u00e1ll\u00edt\u00f3\u00e9p\u00fclet", "name:en": "Pannon Sea Museum", "phone": "+36 46 560 170", "tourism": "museum", "website": "http://www.hermuz.hu/", "wikidata": "Q20974146", "wikipedia": "hu:Pannon-tenger M\u00fazeum"}}, {"type": "way", "id": 503338361, "nodes": [4936679452, 4936679451, 4936679450, 4936679449, 4936679452], "tags": {"addr:city": "Mez\u0151k\u00f6vesd", "addr:housenumber": "10", "addr:postcode": "3400", "addr:street": "Kisjank\u00f3 Bori utca", "name": "B\u00fatorvir\u00e1goz\u00f3", "tourism": "museum"}}, {"type": "way", "id": 503338365, "nodes": [4936679473, 4936679472, 4936679471, 4936679470, 4936679473], "tags": {"contact:phone": "+36 49 312759; +36 49 500135", "description": "nyitvatart\u00e1s I-III. h\u00f3: egyeztet\u00e9ssel; IV-VI/IX-X: kedd-vas. 10-16, VII-VIII 10-18, XI-XII 10-14", "name": "Kisjank\u00f3 Bori-eml\u00e9kh\u00e1z", "tourism": "museum"}}, {"type": "way", "id": 503338366, "nodes": [4936679477, 4936679476, 4936679475, 4936679474, 4936679477], "tags": {"building": "yes", "name": "Sz\u00f6v\u0151i h\u00e1z", "tourism": "museum"}}, {"type": "way", "id": 503338367, "nodes": [4936679484, 4936679483, 4936679482, 4936679481, 4936679480, 4936679479, 4936679484], "tags": {"addr:city": "Mez\u0151k\u00f6vesd", "addr:housenumber": "5", "addr:postcode": "3400", "addr:street": "Kisjank\u00f3 Bori utca", "building": "yes", "name": "N\u00e9pi M\u0171v\u00e9szetek H\u00e1za", "tourism": "museum", "url": "http://turistautak.hu/poi.php?id=68983"}}, {"type": "way", "id": 503338370, "nodes": [4936679493, 4936679492, 4936679491, 4936679490, 4936679493], "tags": {"building": "yes", "name": "M\u00e9zeskal\u00e1csos t\u00e1jh\u00e1z", "tourism": "museum", "url": "http://turistautak.hu/poi.php?id=8720"}}, {"type": "way", "id": 1054502375, "nodes": [9690307609, 9690307608, 9690307607, 9690307606, 9690307609], "tags": {"addr:city": "Novaj", "addr:housenumber": "85", "addr:postcode": "3327", "addr:street": "Istv\u00e1n \u00fat", "building": "yes", "name": "Faluh\u00e1z", "tourism": "museum"}}]}