{"version": 0.6, "generator": "Overpass API 0.7.59 e21c39fe", "osm3s": {"timestamp_osm_base": "2023-03-01T08:38:53Z", "copyright": "The data included in this document is from www.openstreetmap.org. The data is made available under ODbL."}, "elements": [{"type": "node", "id": 662209586, "lat": 47.6424932, "lon": 19.2740826, "tags": {"artist_name": "Mitsui Sen", "artwork_type": "sculpture", "name": "Hull\u00e1m", "name:de": "Welle", "name:en": "Wave", "start_date": "1995", "tourism": "artwork", "wikimedia_commons": "File:Hull\u00e1m (Sen Mitsui), 2019 Veresegyh\u00e1z.jpg"}}, {"type": "node", "id": 1828552198, "lat": 47.6691627, "lon": 19.3070493, "tags": {"artwork_type": "statue", "tourism": "artwork"}}, {"type": "node", "id": 1828552334, "lat": 47.6696517, "lon": 19.3062813, "tags": {"amenity": "clock", "display": "sundial", "name": "Nap\u00f3ra", "tourism": "artwork"}}, {"type": "node", "id": 1829599782, "lat": 47.4437618, "lon": 19.1783968, "tags": {"artwork_type": "statue", "name": "Kondor B\u00e9la", "tourism": "artwork"}}, {"type": "node", "id": 1829599783, "lat": 47.4438627, "lon": 19.1785314, "tags": {"artwork_type": "statue", "name": "Nagy L\u00e1szl\u00f3", "tourism": "artwork"}}, {"type": "node", "id": 1829599784, "lat": 47.4442734, "lon": 19.1790171, "tags": {"name": "PAX", "tourism": "artwork"}}, {"type": "node", "id": 1829599785, "lat": 47.4440152, "lon": 19.1805197, "tags": {"artwork_type": "statue", "name": "Pet\u0151fi S\u00e1ndor", "tourism": "artwork"}}, {"type": "node", "id": 1829599787, "lat": 47.4438515, "lon": 19.1785085, "tags": {"artwork_type": "statue", "name": "Sz\u00e9csi Margit", "tourism": "artwork"}}, {"type": "node", "id": 1916188191, "lat": 47.5986508, "lon": 19.3478692, "tags": {"artist_name": "Herczeg Kl\u00e1ra", "artwork_type": "statue", "name": "Fa\u00fcltet\u0151", "start_date": "1969", "tourism": "artwork"}}, {"type": "node", "id": 1916188214, "lat": 47.5976371, "lon": 19.347133, "tags": {"artist_name": "Martin V\u00f6gerl", "artwork_type": "statue", "description": "Talapzat\u00e1n 4 domborm\u0171: M\u00e1ria \u00e9s Erzs\u00e9bet tal\u00e1lkoz\u00e1sa, az Angyali \u00fcdv\u00f6zlet, M\u00e1ria bemutat\u00e1sa a templomban \u00e9s M\u00e1ria mennybev\u00e9tele. A talapzat\u00e1n 4 szobor: Avilai Nagy Szent Ter\u00e9z, P\u00e1duai Szent Antal, Szent Fl\u00f3ri\u00e1n \u00e9s Szent R\u00f3kus.", "name": "M\u00e1ria-oszlop", "source:description": "kozterkep.hu", "start_date": "1770", "tourism": "artwork"}}, {"type": "node", "id": 2124200132, "lat": 47.5082857, "lon": 19.1966611, "tags": {"artwork_type": "bust", "memorial": "bust", "name": "Paulheim J\u00f3zsef", "tourism": "artwork"}}, {"type": "node", "id": 2133836325, "lat": 47.5107145, "lon": 19.1950725, "tags": {"artwork_type": "bust", "name": "Guzsik Lujza", "tourism": "artwork"}}, {"type": "node", "id": 2178237246, "lat": 47.5047266, "lon": 19.2045165, "tags": {"name": "Sz\u00e9kelykapu", "tourism": "artwork"}}, {"type": "node", "id": 2194104580, "lat": 47.5105505, "lon": 19.2026823, "tags": {"artwork_type": "bust", "name": "Szurmay S\u00e1ndor", "tourism": "artwork"}}, {"type": "node", "id": 2197799614, "lat": 47.5089143, "lon": 19.2054105, "tags": {"tourism": "artwork"}}, {"type": "node", "id": 2453530780, "lat": 47.731212, "lon": 19.1517733, "tags": {"artwork_type": "statue", "name": "Honfoglal\u00e1s", "tourism": "artwork"}}, {"type": "node", "id": 2456258129, "lat": 47.5630702, "lon": 19.5080356, "tags": {"artist_name": "Luk\u00e1csi Lajos", "artwork_type": "statue", "description": "1929-ben fel\u00e1ll\u00edtott\u00e1k az I. vil\u00e1gh\u00e1bor\u00faban elesett h\u0151s\u00f6k szobr\u00e1t. A szobrot Luk\u00e1csi Lajos budapesti szobr\u00e1sz k\u00e9sz\u00edtette el. Az 1848-49-es forradalom \u00e9s szabads\u00e1gharc \u00e9vfordul\u00f3ja tisztelet\u00e9re itt rendezz\u00fck \u00fcnnepi megeml\u00e9kez\u00e9s\u00fcnket.", "name": "Vil\u00e1gh\u00e1bor\u00fas eml\u00e9km\u0171", "tourism": "artwork", "website": "https://www.valkoi-konyvtar.tk/hosok-szobra/"}}, {"type": "node", "id": 2776682097, "lat": 47.5929602, "lon": 19.3608075, "tags": {"artist:wikidata": "Q1253497", "artist_name": "R\u00f3na J\u00f3zsef", "artwork_type": "statue", "name": "K\u00e1lm\u00e1n herceg", "start_date": "1931-09-27", "subject:wikidata": "Q317236", "subject:wikipedia": "hu:K\u00e1lm\u00e1n herceg", "subject:wikipedia:en": "Coloman of Galicia", "tourism": "artwork", "wikimedia_commons": "Category:Statue of Coloman of Galicia in G\u00f6d\u00f6ll\u0151"}}, {"type": "node", "id": 2911187092, "lat": 47.5947239, "lon": 19.3609998, "tags": {"name": "\u00c9let", "tourism": "artwork"}}, {"type": "node", "id": 2916411298, "lat": 47.6862791, "lon": 19.2824917, "tags": {"artwork_type": "statue", "tourism": "artwork"}}, {"type": "node", "id": 2951495464, "lat": 47.641442, "lon": 19.2775034, "tags": {"artist_name": "Mitsui Sen", "artwork_type": "sculpture", "mapillary": "923331478490065", "name": "\u00dajj\u00e1sz\u00fclet\u00e9s", "start_date": "1996", "tourism": "artwork"}}, {"type": "node", "id": 2951495472, "lat": 47.6416629, "lon": 19.2752563, "tags": {"artist_name": "Sen Mitsui", "artwork_type": "sculpture", "material": "stone", "name": "Szell\u0151", "name:en": "Breeze", "start_date": "1994", "tourism": "artwork", "wikimedia_commons": "File:Szell\u0151 (Sen Mitsui), 2019 Veresegyh\u00e1z.jpg"}}, {"type": "node", "id": 2951495476, "lat": 47.6417921, "lon": 19.275788, "tags": {"artist_name": "Mitsui Sen", "artwork_type": "sculpture", "material": "stone", "name": "\u0150si jel", "start_date": "1994", "tourism": "artwork"}}, {"type": "node", "id": 2953418435, "lat": 47.5992342, "lon": 19.331703, "tags": {"artwork_type": "stone", "name": "Nemzeti egy\u00fcv\u00e9 tartoz\u00e1s eml\u00e9km\u0171", "tourism": "artwork"}}, {"type": "node", "id": 2953440250, "lat": 47.5957303, "lon": 19.3382965, "tags": {"artist_name": "R\u00f3na J\u00f3zsef", "artwork_type": "statue", "name": "Erzs\u00e9bet-szobor", "start_date": "1901", "tourism": "artwork"}}, {"type": "node", "id": 2963988387, "lat": 47.5911054, "lon": 19.3656131, "tags": {"artist_name": "Fadrusz J\u00e1nos", "artwork_type": "statue", "name": "Fadrusz-fesz\u00fclet", "start_date": "1936", "tourism": "artwork"}}, {"type": "node", "id": 2983576361, "lat": 47.5792788, "lon": 19.2512771, "tags": {"artist_name": "Mih\u00e1ly G\u00e1bor", "artwork_type": "sculpture", "material": "steel", "name": "Kanyarulatok", "start_date": "1986", "tourism": "artwork"}}, {"type": "node", "id": 2990738762, "lat": 47.5960018, "lon": 19.3495218, "tags": {"artist_name": "Mir\u00f3 Eszter", "artwork_type": "statue", "name": "Szarvas", "start_date": "1980-10", "tourism": "artwork"}}, {"type": "node", "id": 3001656342, "lat": 47.4468936, "lon": 19.1726029, "tags": {"artist_name": "Borics P\u00e1l", "artwork_type": "statue", "date": "1967", "name": "Pingvinek", "tourism": "artwork"}}, {"type": "node", "id": 3007025958, "lat": 47.6056444, "lon": 19.3706033, "tags": {"artist_name": "Varga Zolt\u00e1n Zsolt", "artwork_type": "statue", "description": "2007-ben eltulajdon\u00edtott\u00e1k, a jelenlegi szobor 2009-ben k\u00e9sz\u00fclt.", "name": "Gr\u00f3f Teleki P\u00e1l szobra", "start_date": "2001", "tourism": "artwork"}}, {"type": "node", "id": 3118493834, "lat": 47.5973893, "lon": 19.3975586, "tags": {"artist_name": "Bory Jen\u0151", "artwork_type": "statue", "description": "2000-ben ker\u00fclt a jelenlegi hely\u00e9re", "name": "Madonna-szobor", "start_date": "1936", "tourism": "artwork", "wheelchair": "limited"}}, {"type": "node", "id": 3153720761, "lat": 47.4677403, "lon": 19.1636511, "tags": {"artist_name": "Varga Imre", "name": "Munk\u00e1s", "tourism": "artwork", "wheelchair": "limited"}}, {"type": "node", "id": 3202147974, "lat": 47.5114285, "lon": 19.1935141, "tags": {"artwork_type": "sculpture", "tourism": "artwork"}}, {"type": "node", "id": 3273460966, "lat": 47.4905753, "lon": 19.2593993, "tags": {"addr:city": "Budapest", "addr:postcode": "1172", "artwork_type": "statue", "name": "H\u0151s\u00f6k szobra", "tourism": "artwork", "website": "https://www.kozterkep.hu/~/7366/", "wikidata": "Q1057999", "wikipedia": "hu:H\u0151s\u00f6k szobra (R\u00e1kosliget)"}}, {"type": "node", "id": 3349669793, "lat": 47.4814127, "lon": 19.2495342, "tags": {"artwork_type": "statue", "tourism": "artwork"}}, {"type": "node", "id": 3376935126, "lat": 47.4807318, "lon": 19.2519743, "tags": {"artwork_type": "statue", "name": "I. vil\u00e1gh\u00e1bor\u00fas eml\u00e9km\u0171", "tourism": "artwork"}}, {"type": "node", "id": 3423475468, "lat": 47.4798834, "lon": 19.2534451, "tags": {"artist_name": "Csekovszky \u00c1rp\u00e1d", "artwork_type": "sculpture", "name": "Krist\u00e1ly", "tourism": "artwork", "website": "https://www.kozterkep.hu/~/7363/kristaly_budapest_csekovszky_arpad_1978.html"}}, {"type": "node", "id": 3423475473, "lat": 47.4797383, "lon": 19.254193, "tags": {"artist_name": "Csekovszky \u00c1rp\u00e1d", "artwork_type": "sculpture", "name": "T\u00e9rplasztika", "tourism": "artwork", "website": "https://www.kozterkep.hu/~/7405/terplasztika_budapest_csekovszky_arpad_1978.html"}}, {"type": "node", "id": 3423478962, "lat": 47.4797813, "lon": 19.254009, "tags": {"artist_name": "Martsa Istv\u00e1n", "artwork_type": "statue", "name": "\u00dcl\u0151 paraszt f\u00e9rfi - B\u00edr\u00f3", "tourism": "artwork", "website": "https://www.kozterkep.hu/~/13595/Ulo_paraszt_ferfi_Budapest_1969.html"}}, {"type": "node", "id": 3446893910, "lat": 47.753658, "lon": 19.450155, "tags": {"artwork_type": "statue", "source": "turistautak.hu", "source:date": "2014-10-15", "tourism": "artwork", "url": "http://turistautak.hu/poi.php?id=57250"}}, {"type": "node", "id": 3446925438, "lat": 47.5215566, "lon": 19.7569303, "tags": {"artwork_type": "fountain", "name": "Sz\u00f6k\u0151k\u00fat", "source": "turistautak.hu", "source:date": "2010-03-26", "tourism": "artwork", "url": "http://turistautak.hu/poi.php?id=68249"}}, {"type": "node", "id": 3456369409, "lat": 47.7135917, "lon": 19.1913861, "tags": {"artwork_type": "statue", "name": "Hung\u00e1ria-szobor (Trianon eml\u00e9km\u0171)", "source": "turistautak.hu", "source:date": "2011-05-16", "tourism": "artwork", "url": "http://turistautak.hu/poi.php?id=5577"}}, {"type": "node", "id": 3456369446, "lat": 47.760665, "lon": 19.335493, "tags": {"artwork_type": "statue", "name": "M\u00e1ria-szobor", "source": "turistautak.hu", "source:date": "2014-10-15", "tourism": "artwork", "url": "http://turistautak.hu/poi.php?id=40341"}}, {"type": "node", "id": 3462241086, "lat": 47.639933, "lon": 19.470008, "tags": {"artwork_type": "statue", "description": "Bag 600 \u00e9ves eml\u00e9km\u0171 (Turul-szobor)", "name": "Turul", "source": "turistautak.hu", "source:date": "2011-05-16", "tourism": "artwork", "url": "http://turistautak.hu/poi.php?id=35362"}}, {"type": "node", "id": 3462242053, "lat": 47.693094, "lon": 19.388237, "tags": {"artwork_type": "statue", "source": "turistautak.hu", "source:date": "2011-05-16", "tourism": "artwork", "url": "http://turistautak.hu/poi.php?id=68705"}}, {"type": "node", "id": 3462242055, "lat": 47.695717, "lon": 19.386102, "tags": {"artwork_type": "statue", "source": "turistautak.hu", "source:date": "2011-05-16", "tourism": "artwork", "url": "http://turistautak.hu/poi.php?id=68704"}}, {"type": "node", "id": 3462242846, "lat": 47.66866, "lon": 19.52949, "tags": {"artwork_type": "statue", "source": "turistautak.hu", "source:date": "2011-07-10", "tourism": "artwork", "url": "http://turistautak.hu/poi.php?id=97286"}}, {"type": "node", "id": 3462242847, "lat": 47.668863, "lon": 19.529484, "tags": {"artwork_type": "statue", "source": "turistautak.hu", "source:date": "2011-07-10", "tourism": "artwork", "url": "http://turistautak.hu/poi.php?id=97287"}}, {"type": "node", "id": 3471835328, "lat": 47.44615, "lon": 19.342717, "tags": {"artwork_type": "statue", "name": "Pet\u0151fi sz\u00fcleinek szobra", "source": "turistautak.hu", "source:date": "2010-05-05", "tourism": "artwork", "url": "http://turistautak.hu/poi.php?id=92283"}}, {"type": "node", "id": 3471890102, "lat": 47.5471659, "lon": 19.2606761, "tags": {"artist_name": "Janzer Frigyes", "artwork_type": "statue", "name": "Sim\u00e1ndy J\u00f3zsef", "name:en": "J\u00f3zsef Sim\u00e1ndi", "source": "turistautak.hu", "source:date": "2013-07-02", "start_date": "2006-09-17", "tourism": "artwork", "url": "http://turistautak.hu/poi.php?id=155842"}}, {"type": "node", "id": 3471890179, "lat": 47.6005812, "lon": 19.2398423, "tags": {"artwork_type": "statue", "description": "Fot\u00f3k: http://img1.tar.hu/daninokia/size2/37621289.jpg http://img1.tar.hu/daninokia/size2/37621290.jpg", "name": "T\u00e1ncol\u00f3 p\u00e1r", "source": "turistautak.hu", "source:date": "2011-05-16", "tourism": "artwork", "url": "http://turistautak.hu/poi.php?id=70155"}}, {"type": "node", "id": 3479960089, "lat": 47.73652, "lon": 19.67636, "tags": {"artwork_type": "statue", "description": "II.vil\u00e1gh\u00e1bor\u00fas eml\u00e9kpark, pihen\u0151 padokkal", "name": "Faszobor", "source": "turistautak.hu", "source:date": "2011-07-10", "tourism": "artwork", "url": "http://turistautak.hu/poi.php?id=67830"}}, {"type": "node", "id": 3479961312, "lat": 47.741765, "lon": 19.683735, "tags": {"artwork_type": "statue", "name": "M\u00e1ria-szobor", "source": "turistautak.hu", "source:date": "2014-10-15", "tourism": "artwork", "url": "http://turistautak.hu/poi.php?id=74007"}}, {"type": "node", "id": 3950305926, "lat": 47.7098509, "lon": 19.2343323, "tags": {"artist_name": "Hebenstreit J\u00f3zsef", "artwork_type": "sculpture", "name": "Szenth\u00e1roms\u00e1g oszlop", "tourism": "artwork"}}, {"type": "node", "id": 4282000642, "lat": 47.6675416, "lon": 19.3018434, "tags": {"artwork_type": "sculpture", "name": "Utcasajt", "tourism": "artwork"}}, {"type": "node", "id": 4542008656, "lat": 47.5471619, "lon": 19.2612619, "tags": {"artist_name": "Sidl\u00f3 Ferenc", "artwork_type": "statue", "memorial": "statue", "name": "Szent Imre", "start_date": "1938-06", "tourism": "artwork"}}, {"type": "node", "id": 4744961438, "lat": 47.6050107, "lon": 19.5217148, "tags": {"artwork_type": "statue", "name": "\u00c1rp\u00e1d", "tourism": "artwork"}}, {"type": "node", "id": 4792174327, "lat": 47.6829555, "lon": 19.2765117, "tags": {"artwork_type": "sculpture", "name": "Kvassay Jen\u0151-szobor", "tourism": "artwork"}}, {"type": "node", "id": 4910845121, "lat": 47.6346359, "lon": 19.4805515, "tags": {"artwork_type": "Baag 600 \u00e9ves eml\u00e9km\u0171", "tourism": "artwork"}}, {"type": "node", "id": 4933937733, "lat": 47.5991093, "lon": 19.3480036, "tags": {"artist_name": "Er\u0151s Apolka", "artwork_type": "statue", "name": "Kis Bal\u00e1zs", "start_date": "2015-04-11", "tourism": "artwork"}}, {"type": "node", "id": 5200529033, "lat": 47.5173248, "lon": 19.1669374, "tags": {"addr:city": "Budapest", "addr:street": "Sashalom utca", "artist_name": "R. T\u00f6rley M\u00e1ria szobr\u00e1szm\u0171v\u00e9sz", "artwork_type": "statue", "date": "2017-10-29", "name": "Reform\u00e1ci\u00f3 eml\u00e9km\u0171ve", "survey": "2022-05-07", "tourism": "artwork", "website": "https://www.kozterkep.hu/32510/reformacio-emlekmuve"}}, {"type": "node", "id": 5226735141, "lat": 47.4852809, "lon": 19.2192748, "tags": {"artwork_type": "statue", "name": "Pegazus", "source": "kozterkep.hu", "tourism": "artwork"}}, {"type": "node", "id": 5234728921, "lat": 47.4888483, "lon": 19.3357197, "tags": {"name": "Lourdes-i szobor \u00e9s barlang", "tourism": "artwork"}}, {"type": "node", "id": 5243383383, "lat": 47.6692483, "lon": 19.3082999, "tags": {"artist_name": "B\u00f6jte Horv\u00e1th Istv\u00e1n", "artwork_type": "bust", "name": "Gr\u00f3f Batthy\u00e1ny Lajos", "tourism": "artwork"}}, {"type": "node", "id": 5270610513, "lat": 47.5403126, "lon": 19.2705388, "tags": {"tourism": "artwork"}}, {"type": "node", "id": 5282196200, "lat": 47.5150606, "lon": 19.1695054, "tags": {"artwork_type": "statue", "memorial": "statue", "name": "Szent Istv\u00e1n", "tourism": "artwork"}}, {"type": "node", "id": 5305268321, "lat": 47.488968, "lon": 19.3363302, "tags": {"name": "J\u00e9zus Sz\u00edve szobor", "tourism": "artwork"}}, {"type": "node", "id": 5902457889, "lat": 47.4297739, "lon": 19.1821745, "tags": {"access": "permissive", "addr:city": "Budapest", "addr:housenumber": "39", "addr:postcode": "1186", "addr:street": "Gilice t\u00e9r", "artist_name": "Borsos Mikl\u00f3s", "artwork_type": "statue", "display": "sundial", "material": "bronze", "name": "Nap\u00f3ra", "start_date": "1963", "tourism": "artwork", "website": "https://www.kozterkep.hu/~/21160/Napora_Budapest_1963.html"}}, {"type": "node", "id": 6031959150, "lat": 47.4196895, "lon": 19.436611, "tags": {"artwork_type": "stone", "name": "K\u0151toj\u00e1s", "tourism": "artwork"}}, {"type": "node", "id": 6039438917, "lat": 47.6490553, "lon": 19.2881124, "tags": {"artwork_type": "stone", "mapillary": "501750177907170", "name": "Baross G\u00e1bor Vasminiszter 1848-92", "tourism": "artwork", "wikimedia_commons": "File:Baross G\u00e1bor-eml\u00e9kt\u00e1bla, Baross utca k\u00f6rforgalom, 2019 Veresegyh\u00e1z.jpg"}}, {"type": "node", "id": 6058734528, "lat": 47.422307, "lon": 19.393794, "tags": {"artwork_type": "statue", "name": "Erzs\u00e9bet-Klotild-M\u00e1ria", "tourism": "artwork"}}, {"type": "node", "id": 6263686390, "lat": 47.5210352, "lon": 19.2196801, "tags": {"artwork_type": "statue", "name": "Vil\u00e1gh\u00e1bor\u00fas Eml\u00e9km\u0171", "tourism": "artwork"}}, {"type": "node", "id": 6289226568, "lat": 47.530961, "lon": 19.1997911, "tags": {"artwork_type": "statue", "name": "T\u00f3th Ilonka szobra", "source": "local knowledge", "tourism": "artwork"}}, {"type": "node", "id": 6292842349, "lat": 47.4723157, "lon": 19.1837436, "tags": {"artwork_type": "statue", "is_in": "R\u00e1koskereszt\u00fari \u00daj K\u00f6ztemet\u0151", "material": "stone", "name": "Krisztus szobor", "tourism": "artwork"}}, {"type": "node", "id": 6643539977, "lat": 47.5912254, "lon": 19.2304775, "tags": {"height": "21", "name": "Hungaroring", "start_date": "2019-07-24", "tourism": "artwork"}}, {"type": "node", "id": 6703868293, "lat": 47.594733, "lon": 19.3609399, "tags": {"artwork_type": "statue", "ele": "210", "name": "B\u00fazakal\u00e1sz szobor", "tourism": "artwork"}}, {"type": "node", "id": 6837180756, "lat": 47.6352927, "lon": 19.4914034, "tags": {"artwork_type": "statue", "name": "Szenth\u00e1roms\u00e1g-szobor", "tourism": "artwork"}}, {"type": "node", "id": 6837180758, "lat": 47.6348493, "lon": 19.4909637, "tags": {"artwork_type": "statue", "name": "M\u00e1ria-szobor", "tourism": "artwork"}}, {"type": "node", "id": 6942542695, "lat": 47.5277837, "lon": 19.4000819, "tags": {"artwork_type": "bust", "mapillary": "135431461962444", "name": "Ady Endre", "tourism": "artwork"}}, {"type": "node", "id": 6969795861, "lat": 47.4052453, "lon": 19.2635003, "tags": {"artwork_type": "sculpture", "material": "granite", "name": "Bimb\u00f3", "tourism": "artwork"}}, {"type": "node", "id": 6985727886, "lat": 47.6532206, "lon": 19.297657, "tags": {"artwork_type": "bust", "name": "L\u00e1z\u00e1r Vilmos", "tourism": "artwork", "wikimedia_commons": "File:L\u00e1z\u00e1r Vilmos (M\u00f3dy P\u00e9ter), 2019 Veresegyh\u00e1z.jpg"}}, {"type": "node", "id": 6985727887, "lat": 47.6530868, "lon": 19.2977177, "tags": {"artwork_type": "bust", "name": "Damjanich J\u00e1nos", "tourism": "artwork", "wikimedia_commons": "File:Damjanich J\u00e1nos (Il\u00e9s-Muszka Rudolf), 2019 Veresegyh\u00e1z.jpg"}}, {"type": "node", "id": 6985727888, "lat": 47.6531049, "lon": 19.2978012, "tags": {"artwork_type": "bust", "name": "Aulich Lajos", "tourism": "artwork", "wikimedia_commons": "File:Aulich Lajos t\u00e1bornok (Kun \u00c9va), 2019 Veresegyh\u00e1z.jpg"}}, {"type": "node", "id": 6985727889, "lat": 47.653151, "lon": 19.2978575, "tags": {"artwork_type": "bust", "name": "Gr\u00f3f Leiningen-Westerburg K\u00e1roly", "tourism": "artwork", "wikimedia_commons": "File:Gr\u00f3f Leiningen-Westerburg K\u00e1roly (Konkoly Gy\u00f6rgy), 2019 Veresegyh\u00e1z.jpg"}}, {"type": "node", "id": 6985727890, "lat": 47.6532581, "lon": 19.297893, "tags": {"artwork_type": "bust", "name": "Gr\u00f3f Batthy\u00e1ny Lajos", "tourism": "artwork", "wikimedia_commons": "File:Batthy\u00e1ny Lajos (Horv\u00e1th Istv\u00e1n), 2019 Veresegyh\u00e1z.jpg"}}, {"type": "node", "id": 6985727891, "lat": 47.6533529, "lon": 19.2977958, "tags": {"artwork_type": "bust", "name": "L\u00e1hner Gy\u00f6rgy", "tourism": "artwork", "wikimedia_commons": "File:Bust of Gy\u00f6rgy L\u00e1hner, 2019 Veresegyh\u00e1z.jpg"}}, {"type": "node", "id": 6985727892, "lat": 47.6533696, "lon": 19.2977281, "tags": {"artwork_type": "bust", "name": "T\u00f6r\u00f6k Ign\u00e1c", "tourism": "artwork", "wikimedia_commons": "File:Bust of Ign\u00e1c T\u00f6r\u00f6k, 2019 Veresegyh\u00e1z.jpg"}}, {"type": "node", "id": 6985727893, "lat": 47.6533773, "lon": 19.297655, "tags": {"artwork_type": "bust", "name": "P\u00f6ltenberg Ern\u0151", "tourism": "artwork", "wikimedia_commons": "File:P\u00f6ltenberg Ern\u0151 (Horv\u00e1th Istv\u00e1n), 2019 Veresegyh\u00e1z.jpg"}}, {"type": "node", "id": 6985727894, "lat": 47.6533357, "lon": 19.2975953, "tags": {"artwork_type": "bust", "name": "Kiss Ern\u0151", "tourism": "artwork", "wikimedia_commons": "File:Kiss Ern\u0151 (M\u00f3dy P\u00e9ter), 2019 Veresegyh\u00e1z.jpg"}}, {"type": "node", "id": 6985727895, "lat": 47.6533035, "lon": 19.2976221, "tags": {"artwork_type": "bust", "fixme": "Wikim\u00e9di\u00e1ra k\u00e9ne p\u00f3t\u00f3lni ezt az egy hi\u00e1nyz\u00f3 szobrot, ide: https://commons.wikimedia.org/wiki/Category:Busts_in_Veresegyh%C3%A1z (f\u00e9nyk\u00e9p kell)", "name": "Schweidel J\u00f3zsef", "tourism": "artwork"}}, {"type": "node", "id": 6985727896, "lat": 47.6532513, "lon": 19.2976356, "tags": {"artwork_type": "bust", "name": "Dessewffy Arisztid", "tourism": "artwork", "wikimedia_commons": "File:Dessewffy Arisztid (Megyeri L\u00e1szl\u00f3), 2019 Veresegyh\u00e1z.jpg"}}, {"type": "node", "id": 7089504044, "lat": 47.6576095, "lon": 19.2847328, "tags": {"artwork_type": "szekely_gate", "inscription": "E kaput \u00f6r\u00f6k elm\u00e9kezet\u00fcl Atyha Veresegyh\u00e1znak testv\u00e9ri kapcsolatuk jel\u00e9\u00fcl", "name": "Atyha Sz\u00e9kelykapuja", "start_date": "1997", "tourism": "artwork", "wikimedia_commons": "File:Gate of Atia, Road 2104, 2019 Veresegyh\u00e1z.jpg"}}, {"type": "node", "id": 7089504045, "lat": 47.657119, "lon": 19.284592, "tags": {"artwork_type": "statue", "name": "Baglyok", "tourism": "artwork", "wikimedia_commons": "File:Baglyok, F\u0151 \u00fat \u00e9s Mogyor\u00f3di utca sarok, 2019 Veresegyh\u00e1z.jpg"}}, {"type": "node", "id": 7089504062, "lat": 47.6586357, "lon": 19.2831235, "tags": {"artwork_type": "statue", "material": "stone", "name": "II. vil\u00e1gh\u00e1bor\u00fas eml\u00e9km\u0171, H\u00edmz\u0151 asszony", "start_date": "1996", "tourism": "artwork", "wikimedia_commons": "File:Pomnik II wojny \u015bwiatowej, 2019 Veresegyh\u00e1z.jpg"}}, {"type": "node", "id": 7089504063, "lat": 47.6568173, "lon": 19.2893381, "tags": {"artist_name": "Jen\u0151 Kov\u00e1cs", "artwork_type": "statue", "material": "metal", "name": "Pet\u0151fi S\u00e1ndor", "start_date": "2010", "tourism": "artwork", "wikimedia_commons": "File:Pet\u0151fi S\u00e1ndor szobra, Pet\u0151fi t\u00e9r, 2019 Veresegyh\u00e1z.jpg"}}, {"type": "node", "id": 7363589448, "lat": 47.5930082, "lon": 19.3468246, "tags": {"artwork_type": "statue", "tourism": "artwork"}}, {"type": "node", "id": 7386090248, "lat": 47.4883341, "lon": 19.3422369, "tags": {"artwork_type": "statue", "tourism": "artwork"}}, {"type": "node", "id": 7386090250, "lat": 47.4888719, "lon": 19.3405235, "tags": {"artwork_type": "statue", "tourism": "artwork"}}, {"type": "node", "id": 7398221015, "lat": 47.472694, "lon": 19.179869, "tags": {"name": "F\u0151nixmad\u00e1r", "tourism": "artwork"}}, {"type": "node", "id": 7423746486, "lat": 47.5955221, "lon": 19.2403451, "tags": {"artwork_type": "statue", "tourism": "artwork"}}, {"type": "node", "id": 7515576837, "lat": 47.5958038, "lon": 19.2354336, "tags": {"artwork_type": "statue", "name": "M\u00e1zsa", "tourism": "artwork"}}, {"type": "node", "id": 7515843231, "lat": 47.6005718, "lon": 19.2536458, "tags": {"artwork_type": "sculpture", "name": "villamos", "tourism": "artwork"}}, {"type": "node", "id": 7623583391, "lat": 47.6051599, "lon": 19.5222235, "tags": {"artwork_type": "sculpture", "tourism": "artwork"}}, {"type": "node", "id": 7623583393, "lat": 47.6049776, "lon": 19.5250132, "tags": {"artwork_type": "sculpture", "tourism": "artwork"}}, {"type": "node", "id": 7623583394, "lat": 47.6050796, "lon": 19.5250312, "tags": {"artwork_type": "sculpture", "tourism": "artwork"}}, {"type": "node", "id": 7623583395, "lat": 47.6050726, "lon": 19.5230216, "tags": {"artwork_type": "sculpture", "tourism": "artwork"}}, {"type": "node", "id": 7894013688, "lat": 47.4331465, "lon": 19.2616938, "tags": {"artist:wikidata": "Q56525284", "artist_name": "Mihajlo Kolodko", "artist_name:hu": "Kolodko Mih\u00e1ly", "artwork_subject": "figurative", "artwork_type": "statue", "contact:email": "info@kolodkoart.com", "contact:facebook": "https://www.facebook.com/misha.kolodko", "contact:instagram": "kolodkomini", "contact:website": "http://kolodkoart.com/", "material": "bronze", "name": "Liszt Ferenc", "name:en": "Ferenc Liszt small statue", "name:ru": "\u0424\u0435\u0440\u0435\u043d\u0446 \u041b\u0438\u0441\u0442 \u043c\u0430\u043b\u0435\u043d\u044c\u043a\u0430\u044f \u0441\u0442\u0430\u0442\u0443\u044f", "tourism": "artwork", "url": "https://www.kozterkep.hu/33831/Liszt_Ferenc_miniszobor_Budapest_2018.html"}}, {"type": "node", "id": 8677131306, "lat": 47.6484464, "lon": 19.29369, "tags": {"artist_name": "B\u00f6jte Horv\u00e1th Istv\u00e1n", "artwork_type": "sculpture", "description": "K\u00e9t k\u00e9z tart egy r\u00e9zgoly\u00f3t", "inscription": "\"Mindenki tudja, hogy bizonyos dolgokat nem lehet megval\u00f3s\u00edtani, m\u00edgnem j\u00f6n valaki, aki err\u0151l nem tud \u00e9s megval\u00f3s\u00edtja.\" -Albert Einstein", "material": "stone", "name": "Kezek", "name:en": "Hands", "start_date": "2009", "tourism": "artwork", "wikimedia_commons": "File:Hands by Istv\u00e1n Horv\u00e1th, 2019 Veresegyh\u00e1z.jpg"}}, {"type": "node", "id": 8823963365, "lat": 47.4344267, "lon": 19.2149055, "tags": {"addr:city": "Budapest", "addr:housenumber": "42", "addr:postcode": "1185", "addr:street": "Ungv\u00e1r utca", "amenity": "clock", "artist_name": "Dr. Nemcsics Antal fest\u0151m\u0171v\u00e9sz", "artwork_type": "installation", "display": "sundial", "name": "Nap\u00f3ra", "support": "wall_mounted", "tourism": "artwork"}}, {"type": "node", "id": 8851174614, "lat": 47.6410952, "lon": 19.2804171, "tags": {"artwork_type": "statue", "material": "wood", "name": "Medve", "tourism": "artwork"}}, {"type": "node", "id": 8913078606, "lat": 47.6536637, "lon": 19.2888151, "tags": {"artwork_type": "sculpture", "tourism": "artwork", "wikimedia_commons": "File:Abstract sculpture and post office, 2019 Veresegyh\u00e1z.jpg"}}, {"type": "node", "id": 8977077534, "lat": 47.5215947, "lon": 19.1683424, "tags": {"addr:city": "Budapest", "addr:country": "HU", "addr:housenumber": "51", "addr:postcode": "1161", "addr:street": "M\u00e1ria utca", "addr:suburb": "R\u00e1kosszentmih\u00e1ly", "artist_name": "na", "artwork_subject": "Sz\u0171z M\u00e1ria szobor a kis J\u00e9zussal", "artwork_type": "statue", "building": "wayside_shrine", "denomination": "roman_catholic", "description": "Fi\u00e1t a karj\u00e1ban tart\u00f3 Szent Sz\u0171z alakj\u00e1t egy kism\u00e9ret\u0171, galambd\u00facos faragott sz\u00e9kelykapu veszi k\u00f6r\u00fcl, tetej\u00e9n k\u00e9t fakereszttel. Nagy Ferenc \u00e1ll\u00edtotta 1908-ban saj\u00e1t telk\u00e9nek szeglet\u00e9n, el\u0151zetes enged\u00e9ly n\u00e9lk\u00fcl.", "historic": "wayside_shrine", "inscription": "Isten dics\u0151s\u00e9g\u00e9re \u00e9s Sz\u0171z M\u00e1ria, Magyarorsz\u00e1g Patr\u00f3n\u00e1ja tisztelet\u00e9re emeltette Nagy Ferencz 1908-ban", "lit": "yes", "loc_name": "M\u00e1ria szobor sz\u00e9kelykapuval", "material": "wood", "name": "Szentmih\u00e1lyi Sz\u0171zanya", "name:en": "Mary statue", "religion": "christian", "start_date": "1908", "tourism": "artwork", "url": "https://rakosszentmihaly.hu/keresztek-szobrok/230-szentmihalyi-szuzanya-szobor-maria-utca", "url:mariaut": "https://mariaut.hu/tart/farticle/undefined/463/1", "website": "https://www.kozterkep.hu/42995/szentmihalyi-szuzanya"}}, {"type": "node", "id": 9066234794, "lat": 47.6957621, "lon": 19.2920678, "tags": {"artwork_type": "statue", "tourism": "artwork"}}, {"type": "node", "id": 9218263672, "lat": 47.4760845, "lon": 19.2026382, "tags": {"name": "sz\u00e9kelykapu", "tourism": "artwork"}}, {"type": "node", "id": 9265175995, "lat": 47.5362155, "lon": 19.1999461, "tags": {"historic": "memorial", "tourism": "artwork"}}, {"type": "node", "id": 9297737057, "lat": 47.4422392, "lon": 19.3100476, "tags": {"artwork_type": "statue", "name": "Panenka M\u00e1ria", "tourism": "artwork"}}, {"type": "node", "id": 9559126278, "lat": 47.6524508, "lon": 19.2849785, "tags": {"artwork_type": "relief", "name": "V\u00e1ci Mih\u00e1ly", "tourism": "artwork", "wikimedia_commons": "File:Relief of Mih\u00e1ly V\u00e1ci, 2019 Veresegyh\u00e1z.jpg"}}, {"type": "node", "id": 9559126280, "lat": 47.6587874, "lon": 19.2828901, "tags": {"artwork_type": "installation", "name": "Lourdesi Barlang", "tourism": "artwork", "wikimedia_commons": "File:Saint Elisabeth Church, garden, Lourdes Cave, 2019 Veresegyh\u00e1z.jpg"}}, {"type": "node", "id": 9559126281, "lat": 47.6535435, "lon": 19.2883135, "tags": {"artist_name": "Mizser P\u00e1l;Papp Lajos", "artwork_type": "sculpture", "material": "marble", "name": "V\u00e9ges v\u00e9gtelen", "start_date": "2011", "tourism": "artwork", "wikimedia_commons": "File:V\u00e9ges v\u00e9gtelen szobor, posta \u00e9s hotel, 2019 Veresegyh\u00e1z.jpg"}}, {"type": "node", "id": 9559227876, "lat": 47.6557988, "lon": 19.2835198, "tags": {"artist_name": "Horv\u00e1th Istv\u00e1n", "artwork_type": "statue", "inscription": "Solus Christus, Sola Scriptura, Sola Gratia, Sola Fide, Solid Deo Gloria, K\u00e9sz\u00fclt a reform\u00e1ci\u00f3 500. \u00e9v\u00e9ben 2017", "material": "stone", "name": "Reform\u00e1ci\u00f3 500. \u00e9vfordul\u00f3j\u00e1ra", "start_date": "2017", "tourism": "artwork", "wikimedia_commons": "File:Reform\u00e1ci\u00f3s eml\u00e9km\u0171 (Horv\u00e1th Istv\u00e1n), 2019 Veresegyh\u00e1z.jpg"}}, {"type": "node", "id": 9559227877, "lat": 47.6546863, "lon": 19.2810052, "tags": {"artist_name": "Sen Mitsui", "artwork_type": "sculpture", "material": "stone", "start_date": "2003", "tourism": "artwork", "wikimedia_commons": "File:\u00c1-B-C (Sen Mitsui), 2019 Veresegyh\u00e1z.jpg"}}, {"type": "node", "id": 9559227878, "lat": 47.6548071, "lon": 19.2812107, "tags": {"artist_name": "Kun \u00c9va", "artwork_type": "installation", "material": "ceramic", "name": "Magyar C\u00edmer", "start_date": "2003", "tourism": "artwork", "wikimedia_commons": "File:Magyar c\u00edmer (2003, Kun \u00c9va), 2019 Veresegyh\u00e1z.jpg"}}, {"type": "node", "id": 9559227879, "lat": 47.6557396, "lon": 19.283444, "tags": {"artist_name": "P\u00e9terfy L\u00e1szl\u00f3", "artwork_type": "statue", "material": "bronze", "name": "K\u00e1lvin J\u00e1nos", "start_date": "2011", "tourism": "artwork", "wikimedia_commons": "File:K\u00e1lvin J\u00e1nos (P\u00e9terfy L\u00e1szl\u00f3), 2019 Veresegyh\u00e1z.jpg"}}, {"type": "node", "id": 9559227895, "lat": 47.6674348, "lon": 19.278447, "tags": {"artwork_type": "statue", "inscription": "Seg\u00edt\u0151szentek zar\u00e1ndok\u00fatja, Szent Wolfgang eml\u00e9khely, Mey Kft. 2018", "name": "Szent Wolfgang", "start_date": "2018", "tourism": "artwork", "wikimedia_commons": "File:Szent Wolfgang Eml\u00e9khely, 2019 Veresegyh\u00e1z.jpg"}}, {"type": "node", "id": 9879375952, "lat": 47.6285149, "lon": 19.1796608, "tags": {"artwork_type": "statue", "name": "Pet\u0151fi S\u00e1ndor", "tourism": "artwork"}}, {"type": "node", "id": 9894953421, "lat": 47.7191822, "lon": 19.1820535, "tags": {"artwork_type": "statue", "tourism": "artwork"}}, {"type": "node", "id": 9894953422, "lat": 47.7192809, "lon": 19.1817896, "tags": {"artwork_type": "statue", "tourism": "artwork"}}, {"type": "node", "id": 9939017611, "lat": 47.5491025, "lon": 19.2268044, "tags": {"artwork_type": "statue", "name": "Szent Istv\u00e1n", "tourism": "artwork"}}, {"type": "node", "id": 9947477853, "lat": 47.5509279, "lon": 19.2278408, "tags": {"artwork_type": "statue", "tourism": "artwork"}}, {"type": "node", "id": 10035994270, "lat": 47.6529759, "lon": 19.4774488, "tags": {"artist_name": "Kov\u00e1cs Ferenc", "artwork_type": "bust", "name": "Pet\u0151fi S\u00e1ndor-mellszobor", "tourism": "artwork"}}, {"type": "node", "id": 10036768779, "lat": 47.6651666, "lon": 19.6831735, "tags": {"artist_name": "Borsos Mikl\u00f3s", "artwork_type": "bust", "name": "Pet\u0151fi S\u00e1ndor", "tourism": "artwork"}}, {"type": "node", "id": 10110286073, "lat": 47.4806553, "lon": 19.2569875, "tags": {"artwork_type": "statue", "tourism": "artwork"}}, {"type": "node", "id": 10110286101, "lat": 47.4785092, "lon": 19.2556263, "tags": {"artwork_type": "statue", "tourism": "artwork"}}]}