{"version": 0.6, "generator": "Overpass API 0.7.59 e21c39fe", "osm3s": {"timestamp_osm_base": "2023-03-01T09:14:24Z", "copyright": "The data included in this document is from www.openstreetmap.org. The data is made available under ODbL."}, "elements": [{"type": "node", "id": 1802737778, "lat": 47.5025041, "lon": 19.9147108, "tags": {"addr:city": "J\u00e1szber\u00e9ny", "addr:country": "HU", "addr:housenumber": "5", "addr:postcode": "5100", "addr:street": "T\u00e1ncsics Mih\u00e1ly utca", "name": "J\u00e1sz M\u00fazeum", "tourism": "museum"}}, {"type": "node", "id": 1928856586, "lat": 47.5926821, "lon": 19.8529249, "tags": {"tourism": "museum"}}, {"type": "node", "id": 3148961214, "lat": 47.5059143, "lon": 19.910376, "tags": {"addr:city": "J\u00e1szber\u00e9ny", "addr:housenumber": "7", "addr:postcode": "5100", "addr:street": "Gy\u00f6ngy\u00f6si \u00fat", "museum": "art", "name": "Hamza", "tourism": "museum", "website": "https://www.hamzamuzeum.hu/", "wikidata": "Q1033457", "wikipedia": "hu:Hamza M\u00fazeum"}}, {"type": "node", "id": 3487687973, "lat": 47.595717, "lon": 20.285617, "tags": {"description": "http://www.hevesmuvhaz.hu/sakkmuzeum.html", "name": "Sakkm\u00fazeum", "source": "turistautak.hu", "source:date": "2011-08-10", "tourism": "museum", "url": "http://turistautak.hu/poi.php?id=123011"}}, {"type": "node", "id": 3488384226, "lat": 47.6830514, "lon": 20.3175221, "tags": {"name": "T\u00e1jh\u00e1z", "tourism": "museum"}}, {"type": "node", "id": 5678417486, "lat": 47.7637005, "lon": 19.8485264, "tags": {"building": "yes", "name": "Zsell\u00e9rh\u00e1z", "tourism": "museum"}}, {"type": "node", "id": 6549507121, "lat": 47.5952962, "lon": 20.2880673}, {"type": "node", "id": 6549507122, "lat": 47.5953853, "lon": 20.2884653}, {"type": "node", "id": 6549507123, "lat": 47.5955501, "lon": 20.2883842}, {"type": "node", "id": 6549507124, "lat": 47.595461, "lon": 20.2879862}, {"type": "node", "id": 9949256083, "lat": 47.5826904, "lon": 20.1722554}, {"type": "node", "id": 9949256084, "lat": 47.5826921, "lon": 20.1723846}, {"type": "node", "id": 9949256085, "lat": 47.5824607, "lon": 20.1723912}, {"type": "node", "id": 9949256086, "lat": 47.582459, "lon": 20.1722619}, {"type": "way", "id": 697352575, "nodes": [6549507124, 6549507123, 6549507122, 6549507121, 6549507124], "tags": {"building": "yes", "name": "Hevesi Helyt\u00f6rt\u00e9neti Gy\u0171jtem\u00e9ny", "opening_hours": "Tu-Su 09:00-16:00", "tourism": "museum"}}, {"type": "way", "id": 1085815131, "nodes": [9949256083, 9949256084, 9949256085, 9949256086, 9949256083], "tags": {"building": "yes", "museum": "local_history", "name": "Helyt\u00f6rt\u00e9neti gy\u0171jtem\u00e9ny", "tourism": "museum"}}]}