{"version": 0.6, "generator": "Overpass API 0.7.59 e21c39fe", "osm3s": {"timestamp_osm_base": "2023-03-01T09:04:11Z", "copyright": "The data included in this document is from www.openstreetmap.org. The data is made available under ODbL."}, "elements": [{"type": "node", "id": 2927929002, "lat": 46.9147895, "lon": 17.886811}, {"type": "node", "id": 2927929003, "lat": 46.9147079, "lon": 17.886924}, {"type": "node", "id": 2927929004, "lat": 46.9148139, "lon": 17.8872837}, {"type": "node", "id": 2927929005, "lat": 46.9149623, "lon": 17.8870781}, {"type": "node", "id": 3489640903, "lat": 46.881925, "lon": 17.440579, "tags": {"name": "Marton Gal\u00e9ria", "source": "turistautak.hu", "source:date": "2011-05-26", "tourism": "gallery", "url": "http://turistautak.hu/poi.php?id=118342", "wheelchair": "no"}}, {"type": "node", "id": 5726838769, "lat": 46.9147655, "lon": 17.8872088}, {"type": "node", "id": 5726838770, "lat": 46.9148666, "lon": 17.8870685}, {"type": "node", "id": 5726838771, "lat": 46.9147845, "lon": 17.8869415}, {"type": "node", "id": 5726838772, "lat": 46.9147501, "lon": 17.8869892}, {"type": "node", "id": 8898041972, "lat": 46.7753702, "lon": 17.6594146, "tags": {"charge": "400/200 HUF", "fee": "yes", "opening_hours": "Mo-Su 14:00\u201320:00", "tourism": "gallery"}}, {"type": "way", "id": 289247687, "nodes": [2927929002, 2927929003, 5726838772, 5726838771, 5726838770, 5726838769, 2927929004, 2927929005, 2927929002], "tags": {"addr:city": "Tihany", "addr:housenumber": "10", "addr:postcode": "8237", "addr:street": "Kossuth Lajos utca", "building": "yes", "name": "KOGART Ki\u00e1ll\u00edt\u00e1sok Tihany", "phone": "+36 87 538 042", "tourism": "gallery", "website": "http://www.kogarttihany.hu"}}]}