{"version": 0.6, "generator": "Overpass API 0.7.59 e21c39fe", "osm3s": {"timestamp_osm_base": "2023-03-01T08:52:03Z", "copyright": "The data included in this document is from www.openstreetmap.org. The data is made available under ODbL."}, "elements": [{"type": "node", "id": 3419780596, "lat": 46.0759193, "lon": 18.2278645, "tags": {"name": "Martyn Ferenc Gal\u00e9ria", "tourism": "gallery"}}, {"type": "node", "id": 3419780599, "lat": 46.0792987, "lon": 18.2260637, "tags": {"name": "M\u00fazeum Gal\u00e9ria", "source": "https://artportal.hu/lexikon-intezmeny/muzeum-galeria-pecs/", "tourism": "gallery"}}, {"type": "node", "id": 3419780600, "lat": 46.0769442, "lon": 18.2284445, "tags": {"name": "N\u00e1dor Gal\u00e9ria", "tourism": "gallery"}}, {"type": "node", "id": 3419780602, "lat": 46.0764579, "lon": 18.2273698, "tags": {"addr:city": "P\u00e9cs", "addr:housenumber": "11", "addr:postcode": "7621", "addr:street": "Sz\u00e9chenyi t\u00e9r", "name": "P\u00e9csi Gal\u00e9ria", "tourism": "gallery", "website": "https://www.pecsigaleria.hu/", "wikidata": "Q1242789", "wikipedia": "hu:P\u00e9csi Gal\u00e9ria"}}, {"type": "node", "id": 3419780633, "lat": 46.0786041, "lon": 18.2480678, "tags": {"name": "P\u00e9csi Nagygal\u00e9ria", "tourism": "gallery", "website": "https://www.pecsigaleria.hu/"}}, {"type": "node", "id": 9404372444, "lat": 46.0773858, "lon": 18.2349443, "tags": {"name": "Kir\u00e1ly 51 Gal\u00e9ria", "tourism": "gallery"}}, {"type": "node", "id": 9831261044, "lat": 45.8543425, "lon": 18.2986831, "tags": {"name": "Sikl\u00f3s gal\u00e9ria", "tourism": "gallery"}}]}