{"version": 0.6, "generator": "Overpass API 0.7.59 e21c39fe", "osm3s": {"timestamp_osm_base": "2023-03-01T09:23:30Z", "copyright": "The data included in this document is from www.openstreetmap.org. The data is made available under ODbL."}, "elements": [{"type": "node", "id": 1805288172, "lat": 46.4818302, "lon": 17.3221316, "tags": {"name": "Szak\u00e1csm\u00fazeum", "tourism": "museum"}}, {"type": "node", "id": 2526544288, "lat": 46.457077, "lon": 16.989028}, {"type": "node", "id": 2526544289, "lat": 46.4571003, "lon": 16.988925}, {"type": "node", "id": 2526544306, "lat": 46.4572926, "lon": 16.9890167, "tags": {"entrance": "main"}}, {"type": "node", "id": 2526544321, "lat": 46.4573488, "lon": 16.9890018}, {"type": "node", "id": 2526544333, "lat": 46.4573906, "lon": 16.9888654}, {"type": "node", "id": 2526544335, "lat": 46.4574245, "lon": 16.9890507}, {"type": "node", "id": 2526544337, "lat": 46.4574248, "lon": 16.9888875}, {"type": "node", "id": 2526544340, "lat": 46.4574318, "lon": 16.9887168}, {"type": "node", "id": 2526544344, "lat": 46.4574427, "lon": 16.9892024}, {"type": "node", "id": 2526544347, "lat": 46.4574398, "lon": 16.9890008}, {"type": "node", "id": 2526544351, "lat": 46.4574482, "lon": 16.9888111, "tags": {"barrier": "entrance", "entrance": "main"}}, {"type": "node", "id": 2526544354, "lat": 46.4574565, "lon": 16.9890116}, {"type": "node", "id": 2526544356, "lat": 46.457466, "lon": 16.9890995}, {"type": "node", "id": 2526544361, "lat": 46.4574604, "lon": 16.9886234}, {"type": "node", "id": 2526544363, "lat": 46.4574696, "lon": 16.9887412}, {"type": "node", "id": 2526544380, "lat": 46.4575271, "lon": 16.9886665}, {"type": "node", "id": 2526544382, "lat": 46.4575319, "lon": 16.9886506}, {"type": "node", "id": 2526544389, "lat": 46.4575592, "lon": 16.9890779}, {"type": "node", "id": 2526544399, "lat": 46.457664, "lon": 16.9887359}, {"type": "node", "id": 3465200570, "lat": 46.2286, "lon": 17.367183, "tags": {"fee": "yes", "name": "Hadiipari ki\u00e1ll\u00edt\u00e1s", "opening_hours": "Th,Fr 10:00-12:00,13:00-16:00", "phone": "+3682504073", "source": "turistautak.hu", "source:date": "2012-10-14", "tourism": "museum", "url": "http://turistautak.hu/poi.php?id=29568", "website": "https://nagyatadtdm.hu/"}}, {"type": "node", "id": 3465200571, "lat": 46.343472, "lon": 17.346555, "tags": {"name": "Helyt\u00f6rt\u00e9neti M\u00fazeum", "source": "turistautak.hu", "source:date": "2012-10-14", "tourism": "museum", "url": "http://turistautak.hu/poi.php?id=27047"}}, {"type": "node", "id": 3465201710, "lat": 46.352371, "lon": 17.349756, "tags": {"name": "Piramis\u00e9p\u00edt\u00e9s bemutat\u00f3hely 30-3646199", "source": "turistautak.hu", "source:date": "2012-10-14", "tourism": "museum", "url": "http://turistautak.hu/poi.php?id=92160"}}, {"type": "node", "id": 3485076799, "lat": 46.2581488, "lon": 17.0973926, "tags": {"description": "Az els\u0151 somogyi iskolak\u00e9nt 1796-ban \u00e9p\u00fclt fel barokk st\u00edlusban.", "name": "Egykori ref. gimn\u00e1zium", "source": "turistautak.hu", "source:date": "2012-10-14", "tourism": "museum", "url": "http://turistautak.hu/poi.php?id=140396"}}, {"type": "node", "id": 4804850732, "lat": 46.2585509, "lon": 17.0972379}, {"type": "node", "id": 4804850733, "lat": 46.2582797, "lon": 17.0973742}, {"type": "node", "id": 4804850734, "lat": 46.2582387, "lon": 17.0972034}, {"type": "node", "id": 4804850735, "lat": 46.2585098, "lon": 17.097067}, {"type": "node", "id": 5715898135, "lat": 46.4329123, "lon": 16.8981691, "tags": {"tourism": "museum"}}, {"type": "node", "id": 6050459589, "lat": 46.4550652, "lon": 16.9908522, "tags": {"addr:city": "Nagykanizsa", "addr:country": "HU", "addr:housenumber": "5", "addr:postcode": "8800", "addr:street": "F\u0151 \u00fat", "fee": "yes", "name": "Th\u00fary Gy\u00f6rgy M\u00fazeum", "tourism": "museum"}}, {"type": "node", "id": 8532112075, "lat": 46.2912463, "lon": 17.2961109, "tags": {"addr:city": "Somogyszob", "addr:housenumber": "24", "addr:postcode": "7563", "addr:street": "Luther utca", "email": "vilmahaz@gmail.com", "name": "Vilma h\u00e1z", "phone": "+3682445106", "tourism": "museum", "website": "https://vilmahaz.hu/"}}, {"type": "node", "id": 9038271952, "lat": 46.4537568, "lon": 16.9944078}, {"type": "node", "id": 9038271953, "lat": 46.4536645, "lon": 16.9943967}, {"type": "node", "id": 9038271960, "lat": 46.4537658, "lon": 16.9946838}, {"type": "node", "id": 9038271961, "lat": 46.4536434, "lon": 16.9946797}, {"type": "node", "id": 9038271962, "lat": 46.4536376, "lon": 16.9945057}, {"type": "node", "id": 9038271963, "lat": 46.4535758, "lon": 16.9944975}, {"type": "node", "id": 9038271964, "lat": 46.4535732, "lon": 16.9943922}, {"type": "way", "id": 245462812, "nodes": [2526544382, 2526544399, 2526544389, 2526544354, 2526544347, 2526544335, 2526544321, 2526544333, 2526544337, 2526544351, 2526544363, 2526544340, 2526544361, 2526544380, 2526544382], "tags": {"addr:city": "Nagykanizsa", "addr:country": "HU", "addr:housenumber": "15", "addr:postcode": "8800", "addr:street": "Erzs\u00e9bet t\u00e9r", "amenity": "community_centre", "building": "yes", "name": "Kiskast\u00e9ly", "tourism": "museum"}}, {"type": "way", "id": 245462814, "nodes": [2526544289, 2526544288, 2526544344, 2526544356, 2526544306, 2526544289], "tags": {"addr:city": "Nagykanizsa", "addr:country": "HU", "addr:housenumber": "15", "addr:postcode": "8800", "addr:street": "Erzs\u00e9bet t\u00e9r", "amenity": "community_centre", "building": "yes", "name": "Magyar Plak\u00e1t H\u00e1z", "tourism": "museum"}}, {"type": "way", "id": 488135850, "nodes": [4804850732, 4804850733, 4804850734, 4804850735, 4804850732], "tags": {"addr:city": "Csurg\u00f3", "addr:postcode": "8840", "building": "yes", "building:levels": "2", "tourism": "museum"}}, {"type": "way", "id": 976708078, "nodes": [9038271952, 9038271960, 9038271961, 9038271962, 9038271963, 9038271964, 9038271953, 9038271952], "tags": {"building": "yes", "name": "Th\u00fary Gy\u00f6rgy M\u00fazeum", "tourism": "museum"}}]}